[
  {
    "city": "Алейск",
    "population": "29.0",
    "lat": "52.4922513",
    "lon": "82.7793606",
    "region_name": "Алтайский край",
    "region_iso_code": "RU-ALT",
    "federal_district": "Сибирский",
    "okato": "1403000000",
    "oktmo": "1703000001",
    "kladr_id": "2200000200000",
    "fias_id": "ae716080-f27b-40b6-a555-cf8b518e849e"
  },
  {
    "city": "Барнаул",
    "population": "632.4",
    "lat": "53.3479968",
    "lon": "83.7798064",
    "region_name": "Алтайский край",
    "region_iso_code": "RU-ALT",
    "federal_district": "Сибирский",
    "okato": "1401000000",
    "oktmo": "1701000001",
    "kladr_id": "2200000100000",
    "fias_id": "d13945a8-7017-46ab-b1e6-ede1e89317ad"
  },
  {
    "city": "Белокуриха",
    "population": "15.2",
    "lat": "51.996152",
    "lon": "84.9839604",
    "region_name": "Алтайский край",
    "region_iso_code": "RU-ALT",
    "federal_district": "Сибирский",
    "okato": "1404000000",
    "oktmo": "1704000001",
    "kladr_id": "2200000300000",
    "fias_id": "e4edca96-9b86-4cac-8c7f-cc93d9ba4cd1"
  },
  {
    "city": "Бийск",
    "population": "199.5",
    "lat": "52.5393864",
    "lon": "85.2138453",
    "region_name": "Алтайский край",
    "region_iso_code": "RU-ALT",
    "federal_district": "Сибирский",
    "okato": "1405000000",
    "oktmo": "1705000001",
    "kladr_id": "2200000400000",
    "fias_id": "52f876f6-cb1d-4f23-a22f-b692609fc1e0"
  },
  {
    "city": "Горняк",
    "population": "12.3",
    "lat": "50.9979622",
    "lon": "81.4643358",
    "region_name": "Алтайский край",
    "region_iso_code": "RU-ALT",
    "federal_district": "Сибирский",
    "okato": "1225501000",
    "oktmo": "1625101001",
    "kladr_id": "2202700100000",
    "fias_id": "094b3627-2699-4782-8492-4d82aac71958"
  },
  {
    "city": "Заринск",
    "population": "45.9",
    "lat": "53.7063476",
    "lon": "84.9315081",
    "region_name": "Алтайский край",
    "region_iso_code": "RU-ALT",
    "federal_district": "Сибирский",
    "okato": "1406000000",
    "oktmo": "1706000001",
    "kladr_id": "2200001100000",
    "fias_id": "142e04ef-dec1-44fa-b553-fac215764374"
  },
  {
    "city": "Змеиногорск",
    "population": "10.2",
    "lat": "51.1581094",
    "lon": "82.1872547",
    "region_name": "Алтайский край",
    "region_iso_code": "RU-ALT",
    "federal_district": "Сибирский",
    "okato": "1214501000",
    "oktmo": "1614101001",
    "kladr_id": "2201500100000",
    "fias_id": "e7001b8f-d104-4873-96d4-66339f5e530a"
  },
  {
    "city": "Камень-на-Оби",
    "population": "40.5",
    "lat": "53.7913974",
    "lon": "81.3545053",
    "region_name": "Алтайский край",
    "region_iso_code": "RU-ALT",
    "federal_district": "Сибирский",
    "okato": "1216501000",
    "oktmo": "1616101001",
    "kladr_id": "2201800100000",
    "fias_id": "810ca9c7-f10e-4def-9c48-f0aa83168ca7"
  },
  {
    "city": "Новоалтайск",
    "population": "74.6",
    "lat": "53.4119759",
    "lon": "83.9311069",
    "region_name": "Алтайский край",
    "region_iso_code": "RU-ALT",
    "federal_district": "Сибирский",
    "okato": "1413000000",
    "oktmo": "1713000001",
    "kladr_id": "2200000800000",
    "fias_id": "aa288d9f-4b2a-42a6-97f0-3502dddfa383"
  },
  {
    "city": "Рубцовск",
    "population": "141.6",
    "lat": "51.5012067",
    "lon": "81.2078695",
    "region_name": "Алтайский край",
    "region_iso_code": "RU-ALT",
    "federal_district": "Сибирский",
    "okato": "1416000000",
    "oktmo": "1716000001",
    "kladr_id": "2200000900000",
    "fias_id": "65db5c88-c65c-43f0-9c21-13e15a032d4a"
  },
  {
    "city": "Славгород",
    "population": "29.1",
    "lat": "52.999463",
    "lon": "78.6459232",
    "region_name": "Алтайский край",
    "region_iso_code": "RU-ALT",
    "federal_district": "Сибирский",
    "okato": "1419000000",
    "oktmo": "1719000001",
    "kladr_id": "2200001000000",
    "fias_id": "94ae181d-b153-4dd1-8a2f-12852919875f"
  },
  {
    "city": "Яровое",
    "population": "18.1",
    "lat": "52.9252146",
    "lon": "78.5729775",
    "region_name": "Алтайский край",
    "region_iso_code": "RU-ALT",
    "federal_district": "Сибирский",
    "okato": "1430000000",
    "oktmo": "1730000001",
    "kladr_id": "2200001200000",
    "fias_id": "e07d57ed-22ce-4020-b59c-f7aae6f091bf"
  },
  {
    "city": "Белогорск",
    "population": "65.3",
    "lat": "50.9213415",
    "lon": "128.4739471",
    "region_name": "Амурская область",
    "region_iso_code": "RU-AMU",
    "federal_district": "Дальневосточный",
    "okato": "10410000000",
    "oktmo": "10710000001",
    "kladr_id": "2800000300000",
    "fias_id": "c528e99b-7e81-4290-9cda-8713884472a5"
  },
  {
    "city": "Благовещенск",
    "population": "226.4",
    "lat": "50.290659",
    "lon": "127.527198",
    "region_name": "Амурская область",
    "region_iso_code": "RU-AMU",
    "federal_district": "Дальневосточный",
    "okato": "10401000000",
    "oktmo": "10701000001",
    "kladr_id": "2800000100000",
    "fias_id": "8f41253d-6e3b-48a9-842a-25ba894bd093"
  },
  {
    "city": "Завитинск",
    "population": "10.2",
    "lat": "50.1064111",
    "lon": "129.4391813",
    "region_name": "Амурская область",
    "region_iso_code": "RU-AMU",
    "federal_district": "Дальневосточный",
    "okato": "10221501000",
    "oktmo": "10621101001",
    "kladr_id": "2800500100000",
    "fias_id": "7b39476f-0edb-4bc3-bb31-6cedfb2aa695"
  },
  {
    "city": "Зея",
    "population": "23.0",
    "lat": "53.7340088",
    "lon": "127.265787",
    "region_name": "Амурская область",
    "region_iso_code": "RU-AMU",
    "federal_district": "Дальневосточный",
    "okato": "10412000000",
    "oktmo": "10712000001",
    "kladr_id": "2800000400000",
    "fias_id": "581855f4-f0bc-44a5-a36e-a298279f9ec4"
  },
  {
    "city": "Райчихинск",
    "population": "16.8",
    "lat": "49.7941615",
    "lon": "129.4112492",
    "region_name": "Амурская область",
    "region_iso_code": "RU-AMU",
    "federal_district": "Дальневосточный",
    "okato": "10420000000",
    "oktmo": "10720000001",
    "kladr_id": "2800000200000",
    "fias_id": "981b5f3a-f0b6-444f-a6fb-c2bc10804b31"
  },
  {
    "city": "Свободный",
    "population": "54.0",
    "lat": "51.3614103",
    "lon": "128.1219729",
    "region_name": "Амурская область",
    "region_iso_code": "RU-AMU",
    "federal_district": "Дальневосточный",
    "okato": "10430000000",
    "oktmo": "10730000001",
    "kladr_id": "2800000500000",
    "fias_id": "dd560dfa-3feb-48e2-aa3b-b71213e7441e"
  },
  {
    "city": "Сковородино",
    "population": "8.9",
    "lat": "53.9871095",
    "lon": "123.9437205",
    "region_name": "Амурская область",
    "region_iso_code": "RU-AMU",
    "federal_district": "Дальневосточный",
    "okato": "10249501000",
    "oktmo": "10649101001",
    "kladr_id": "2801700100000",
    "fias_id": "260c545f-883c-440a-852c-c39a65fe4104"
  },
  {
    "city": "Тында",
    "population": "33.2",
    "lat": "55.1546441",
    "lon": "124.7468904",
    "region_name": "Амурская область",
    "region_iso_code": "RU-AMU",
    "federal_district": "Дальневосточный",
    "okato": "10432000000",
    "oktmo": "10732000001",
    "kladr_id": "2800000600000",
    "fias_id": "007e010f-e110-4a55-90a7-c4acac623c9b"
  },
  {
    "city": "Циолковский",
    "population": "7.2",
    "lat": "51.762481",
    "lon": "128.1219846",
    "region_name": "Амурская область",
    "region_iso_code": "RU-AMU",
    "federal_district": "Дальневосточный",
    "okato": "10545000000",
    "oktmo": "10770000001",
    "kladr_id": "2800001000000",
    "fias_id": "f9ce3255-3f79-4457-919c-d180fa813b6a"
  },
  {
    "city": "Шимановск",
    "population": "18.6",
    "lat": "52.0051886",
    "lon": "127.7005458",
    "region_name": "Амурская область",
    "region_iso_code": "RU-AMU",
    "federal_district": "Дальневосточный",
    "okato": "10440000000",
    "oktmo": "10740000001",
    "kladr_id": "2800000700000",
    "fias_id": "809f0591-bb18-40a2-9fac-7d3d0a22c0bf"
  },
  {
    "city": "Архангельск",
    "population": "347.0",
    "lat": "64.5394289",
    "lon": "40.5169606",
    "region_name": "Архангельская область",
    "region_iso_code": "RU-ARK",
    "federal_district": "Северо-Западный",
    "okato": "11401000000",
    "oktmo": "11701000001",
    "kladr_id": "2900000100000",
    "fias_id": "06814fb6-0dc3-4bec-ba20-11f894a0faf5"
  },
  {
    "city": "Вельск",
    "population": "22.3",
    "lat": "61.066",
    "lon": "42.1032789",
    "region_name": "Архангельская область",
    "region_iso_code": "RU-ARK",
    "federal_district": "Северо-Западный",
    "okato": "11205501000",
    "oktmo": "11605101001",
    "kladr_id": "2900200100000",
    "fias_id": "71051070-fce3-4a4d-a9d9-cd50f6dc6310"
  },
  {
    "city": "Каргополь",
    "population": "10.0",
    "lat": "61.5009724",
    "lon": "38.9636966",
    "region_name": "Архангельская область",
    "region_iso_code": "RU-ARK",
    "federal_district": "Северо-Западный",
    "okato": "11218501000",
    "oktmo": "11518000001",
    "kladr_id": "2900600100000",
    "fias_id": "a670f317-f3c4-4dd6-9d27-fa68a8b28b6f"
  },
  {
    "city": "Коряжма",
    "population": "35.7",
    "lat": "61.2885948",
    "lon": "47.1003015",
    "region_name": "Архангельская область",
    "region_iso_code": "RU-ARK",
    "federal_district": "Северо-Западный",
    "okato": "11408000000",
    "oktmo": "11708000001",
    "kladr_id": "2900000500000",
    "fias_id": "782acb50-ddfa-4483-bcbd-a5e667976036"
  },
  {
    "city": "Котлас",
    "population": "62.0",
    "lat": "61.2528972",
    "lon": "46.633242",
    "region_name": "Архангельская область",
    "region_iso_code": "RU-ARK",
    "federal_district": "Северо-Западный",
    "okato": "11410000000",
    "oktmo": "11710000001",
    "kladr_id": "2900800100000",
    "fias_id": "93adb246-540e-40a2-a0fd-e96ca6796589"
  },
  {
    "city": "Мезень",
    "population": "3.2",
    "lat": "65.8398078",
    "lon": "44.2532273",
    "region_name": "Архангельская область",
    "region_iso_code": "RU-ARK",
    "federal_district": "Северо-Западный",
    "okato": "11242501000",
    "oktmo": "11642101001",
    "kladr_id": "2901200100000",
    "fias_id": "8a49f67f-6c48-4160-bd1d-ebc188a69269"
  },
  {
    "city": "Мирный",
    "population": "32.9",
    "lat": "62.7645265",
    "lon": "40.3360076",
    "region_name": "Архангельская область",
    "region_iso_code": "RU-ARK",
    "federal_district": "Северо-Западный",
    "okato": "11525000000",
    "oktmo": "11725000001",
    "kladr_id": "2900000200000",
    "fias_id": "977c7606-1b37-4424-84f7-b0c66c3e4b94"
  },
  {
    "city": "Нарьян-Мар",
    "population": "25.1",
    "lat": "67.63777777777779",
    "lon": "53.00666666666667",
    "region_name": "Архангельская область",
    "region_iso_code": "RU-ARK",
    "federal_district": "Северо-Западный",
    "okato": "11000000000",
    "oktmo": "11000000",
    "kladr_id": "2900000000000",
    "fias_id": "294277aa-e25d-428c-95ad-46719c4ddb44"
  },
  {
    "city": "Новодвинск",
    "population": "37.7",
    "lat": "64.4136851",
    "lon": "40.8208143",
    "region_name": "Архангельская область",
    "region_iso_code": "RU-ARK",
    "federal_district": "Северо-Западный",
    "okato": "11415000000",
    "oktmo": "11715000001",
    "kladr_id": "2900000300000",
    "fias_id": "3b0ef6c2-9bcd-44a5-afec-2723bd8190bc"
  },
  {
    "city": "Няндома",
    "population": "19.1",
    "lat": "61.6654674",
    "lon": "40.2062947",
    "region_name": "Архангельская область",
    "region_iso_code": "RU-ARK",
    "federal_district": "Северо-Западный",
    "okato": "11244501000",
    "oktmo": "11644101001",
    "kladr_id": "2901300100000",
    "fias_id": "491b0861-0da5-4781-9c2c-521df0ea7af6"
  },
  {
    "city": "Онега",
    "population": "18.5",
    "lat": "63.9162928",
    "lon": "38.0805031",
    "region_name": "Архангельская область",
    "region_iso_code": "RU-ARK",
    "federal_district": "Северо-Западный",
    "okato": "11420000000",
    "oktmo": "11646101001",
    "kladr_id": "2901400100000",
    "fias_id": "53e6ddd5-a1fb-4444-89a4-3952ef6f114b"
  },
  {
    "city": "Северодвинск",
    "population": "182.0",
    "lat": "64.5625385",
    "lon": "39.8180934",
    "region_name": "Архангельская область",
    "region_iso_code": "RU-ARK",
    "federal_district": "Северо-Западный",
    "okato": "11430000000",
    "oktmo": "11730000001",
    "kladr_id": "2900000400000",
    "fias_id": "32747c72-c08b-4440-b340-91f48d72f9db"
  },
  {
    "city": "Сольвычегодск",
    "population": "1.9",
    "lat": "61.3319616",
    "lon": "46.920441",
    "region_name": "Архангельская область",
    "region_iso_code": "RU-ARK",
    "federal_district": "Северо-Западный",
    "okato": "11227504000",
    "oktmo": "11627104001",
    "kladr_id": "2900800300000",
    "fias_id": "a56a44ee-f79d-4e51-b219-c3c828c7e0c0"
  },
  {
    "city": "Шенкурск",
    "population": "4.7",
    "lat": "62.1057272",
    "lon": "42.8996973",
    "region_name": "Архангельская область",
    "region_iso_code": "RU-ARK",
    "federal_district": "Северо-Западный",
    "okato": "11258501000",
    "oktmo": "11658101001",
    "kladr_id": "2901900100000",
    "fias_id": "74a26d75-38a6-485a-9468-52dd7c6711fa"
  },
  {
    "city": "Астрахань",
    "population": "529.8",
    "lat": "46.3655652",
    "lon": "48.0559236",
    "region_name": "Астраханская область",
    "region_iso_code": "RU-AST",
    "federal_district": "Южный",
    "okato": "12401000000",
    "oktmo": "12701000001",
    "kladr_id": "3000000100000",
    "fias_id": "a101dd8b-3aee-4bda-9c61-9df106f145ff"
  },
  {
    "city": "Ахтубинск",
    "population": "36.5",
    "lat": "48.2752034",
    "lon": "46.1906462",
    "region_name": "Астраханская область",
    "region_iso_code": "RU-AST",
    "federal_district": "Южный",
    "okato": "12205501000",
    "oktmo": "12605101001",
    "kladr_id": "3000200100000",
    "fias_id": "8d7acd62-cef4-4d5c-8057-644ee454ce6c"
  },
  {
    "city": "Знаменск",
    "population": "26.7",
    "lat": "48.5866291",
    "lon": "45.7368019",
    "region_name": "Астраханская область",
    "region_iso_code": "RU-AST",
    "federal_district": "Южный",
    "okato": "12519000000",
    "oktmo": "12719000001",
    "kladr_id": "3000000200000",
    "fias_id": "54ecd5a8-83d9-4a85-ae2c-6fe6976ab716"
  },
  {
    "city": "Камызяк",
    "population": "15.7",
    "lat": "46.110579",
    "lon": "48.07333",
    "region_name": "Астраханская область",
    "region_iso_code": "RU-AST",
    "federal_district": "Южный",
    "okato": "12225501000",
    "oktmo": "12625101001",
    "kladr_id": "3000600100000",
    "fias_id": "bc643e13-dcc5-4fa4-8cb1-94f71c5c18f4"
  },
  {
    "city": "Нариманов",
    "population": "10.8",
    "lat": "46.6916565",
    "lon": "47.8502476",
    "region_name": "Астраханская область",
    "region_iso_code": "RU-AST",
    "federal_district": "Южный",
    "okato": "12240501000",
    "oktmo": "12640101001",
    "kladr_id": "3000900100000",
    "fias_id": "46ce55dd-e3e2-4c31-ab3c-273423c2f782"
  },
  {
    "city": "Харабали",
    "population": "17.5",
    "lat": "47.408999",
    "lon": "47.2525345",
    "region_name": "Астраханская область",
    "region_iso_code": "RU-AST",
    "federal_district": "Южный",
    "okato": "12245501000",
    "oktmo": "12645101001",
    "kladr_id": "3001100100000",
    "fias_id": "08373220-e187-4094-82de-b8e0864c5f38"
  },
  {
    "city": "Алексеевка",
    "population": "37.8",
    "lat": "50.6299647",
    "lon": "38.6880342",
    "region_name": "Белгородская область",
    "region_iso_code": "RU-BEL",
    "federal_district": "Центральный",
    "okato": "14410000000",
    "oktmo": "14710000001",
    "kladr_id": "3100200100000",
    "fias_id": "94969f84-fff4-4ddf-9677-b912b4b2aa3e"
  },
  {
    "city": "Белгород",
    "population": "394.1",
    "lat": "50.5976472",
    "lon": "36.5856652",
    "region_name": "Белгородская область",
    "region_iso_code": "RU-BEL",
    "federal_district": "Центральный",
    "okato": "14401000000",
    "oktmo": "14701000001",
    "kladr_id": "3100000100000",
    "fias_id": "02e9c019-ab4d-4fa0-928e-d6c0a41dc256"
  },
  {
    "city": "Бирюч",
    "population": "7.5",
    "lat": "50.6484585",
    "lon": "38.4005083",
    "region_name": "Белгородская область",
    "region_iso_code": "RU-BEL",
    "federal_district": "Центральный",
    "okato": "14242501000",
    "oktmo": "14642151001",
    "kladr_id": "3101200100000",
    "fias_id": "eaaf5809-d1e2-4d93-8f05-85dd598cc403"
  },
  {
    "city": "Валуйки",
    "population": "34.2",
    "lat": "50.2111207",
    "lon": "38.0998772",
    "region_name": "Белгородская область",
    "region_iso_code": "RU-BEL",
    "federal_district": "Центральный",
    "okato": "14420000000",
    "oktmo": "14720000001",
    "kladr_id": "3100400100000",
    "fias_id": "fe7eea4a-875a-4235-aa61-81c2a37a0440"
  },
  {
    "city": "Грайворон",
    "population": "6.5",
    "lat": "50.4862958",
    "lon": "35.6663877",
    "region_name": "Белгородская область",
    "region_iso_code": "RU-BEL",
    "federal_district": "Центральный",
    "okato": "14232501000",
    "oktmo": "14725000001",
    "kladr_id": "3100700100000",
    "fias_id": "51c31ef5-10b3-4011-8e1c-7e7d452afd1b"
  },
  {
    "city": "Губкин",
    "population": "86.2",
    "lat": "51.2837123",
    "lon": "37.5347759",
    "region_name": "Белгородская область",
    "region_iso_code": "RU-BEL",
    "federal_district": "Центральный",
    "okato": "14430000000",
    "oktmo": "14730000001",
    "kladr_id": "3100000400000",
    "fias_id": "98b1ec30-6107-4f99-ae3a-9d82492f30a1"
  },
  {
    "city": "Короча",
    "population": "5.8",
    "lat": "50.8129041",
    "lon": "37.1896436",
    "region_name": "Белгородская область",
    "region_iso_code": "RU-BEL",
    "federal_district": "Центральный",
    "okato": "14240501000",
    "oktmo": "14640101001",
    "kladr_id": "3101000100000",
    "fias_id": "76fecead-fc02-459a-bce4-848698e645fe"
  },
  {
    "city": "Новый Оскол",
    "population": "18.5",
    "lat": "50.7633747",
    "lon": "37.8775484",
    "region_name": "Белгородская область",
    "region_iso_code": "RU-BEL",
    "federal_district": "Центральный",
    "okato": "14244501000",
    "oktmo": "14735000001",
    "kladr_id": "3101400100000",
    "fias_id": "f565b329-4041-4fd2-aa0a-debd5f7c3857"
  },
  {
    "city": "Старый Оскол",
    "population": "223.9",
    "lat": "51.2967101",
    "lon": "37.8350182",
    "region_name": "Белгородская область",
    "region_iso_code": "RU-BEL",
    "federal_district": "Центральный",
    "okato": "14440000000",
    "oktmo": "14740000001",
    "kladr_id": "3100000200000",
    "fias_id": "9f5e86b1-b893-43dc-9dd4-ac66573b17d1"
  },
  {
    "city": "Строитель",
    "population": "24.1",
    "lat": "50.7845099",
    "lon": "36.4887648",
    "region_name": "Белгородская область",
    "region_iso_code": "RU-BEL",
    "federal_district": "Центральный",
    "okato": "14258501000",
    "oktmo": "14755000001",
    "kladr_id": "3102100100000",
    "fias_id": "19c9f6de-45cd-4c76-9839-abd571698ced"
  },
  {
    "city": "Шебекино",
    "population": "40.9",
    "lat": "50.4004883",
    "lon": "36.8877889",
    "region_name": "Белгородская область",
    "region_iso_code": "RU-BEL",
    "federal_district": "Центральный",
    "okato": "14450000000",
    "oktmo": "14750000001",
    "kladr_id": "3100000300000",
    "fias_id": "dc80ddf0-b1ac-4344-98e8-fcfa5295a0a3"
  },
  {
    "city": "Брянск",
    "population": "402.7",
    "lat": "53.2419535",
    "lon": "34.3652146",
    "region_name": "Брянская область",
    "region_iso_code": "RU-BRY",
    "federal_district": "Центральный",
    "okato": "15401000000",
    "oktmo": "15701000001",
    "kladr_id": "3200000100000",
    "fias_id": "414b71cf-921e-4bfc-b6e0-f7395d16aaef"
  },
  {
    "city": "Дятьково",
    "population": "26.2",
    "lat": "53.5958178",
    "lon": "34.3551812",
    "region_name": "Брянская область",
    "region_iso_code": "RU-BRY",
    "federal_district": "Центральный",
    "okato": "15216501000",
    "oktmo": "15616104001",
    "kladr_id": "3200600100000",
    "fias_id": "fd37b6f0-2406-41ca-86bc-57dd58fd71f4"
  },
  {
    "city": "Жуковка",
    "population": "16.4",
    "lat": "53.5340397",
    "lon": "33.7302579",
    "region_name": "Брянская область",
    "region_iso_code": "RU-BRY",
    "federal_district": "Центральный",
    "okato": "15222501000",
    "oktmo": "15502000001",
    "kladr_id": "3200800100000",
    "fias_id": "bd51e883-748a-4c55-ac0a-eee31be1433e"
  },
  {
    "city": "Злынка",
    "population": "5.3",
    "lat": "52.4267015",
    "lon": "31.7360399",
    "region_name": "Брянская область",
    "region_iso_code": "RU-BRY",
    "federal_district": "Центральный",
    "okato": "15223501000",
    "oktmo": "15623101001",
    "kladr_id": "3200900100000",
    "fias_id": "9491aba8-fbc1-4da8-8ede-8d49690c393a"
  },
  {
    "city": "Карачев",
    "population": "17.2",
    "lat": "53.1296524",
    "lon": "34.9888727",
    "region_name": "Брянская область",
    "region_iso_code": "RU-BRY",
    "federal_district": "Центральный",
    "okato": "15224501000",
    "oktmo": "15624101001",
    "kladr_id": "3201000100000",
    "fias_id": "6f39b866-1fed-4add-aa00-e76992516660"
  },
  {
    "city": "Клинцы",
    "population": "63.0",
    "lat": "52.7529119",
    "lon": "32.233911",
    "region_name": "Брянская область",
    "region_iso_code": "RU-BRY",
    "federal_district": "Центральный",
    "okato": "15415000000",
    "oktmo": "15715000001",
    "kladr_id": "3200000300000",
    "fias_id": "59cb1f1f-16f9-47eb-9487-14a6c00e8621"
  },
  {
    "city": "Мглин",
    "population": "7.1",
    "lat": "53.0599771",
    "lon": "32.8468129",
    "region_name": "Брянская область",
    "region_iso_code": "RU-BRY",
    "federal_district": "Центральный",
    "okato": "15236501000",
    "oktmo": "15636101001",
    "kladr_id": "3201600100000",
    "fias_id": "a4162075-13cb-4f4a-9974-ef042c8be149"
  },
  {
    "city": "Новозыбков",
    "population": "39.5",
    "lat": "52.537173",
    "lon": "31.9357991",
    "region_name": "Брянская область",
    "region_iso_code": "RU-BRY",
    "federal_district": "Центральный",
    "okato": "15420000000",
    "oktmo": "15720000001",
    "kladr_id": "3200000400000",
    "fias_id": "cf4dd9d7-d152-4140-bed2-59d8be5a4e2c"
  },
  {
    "city": "Почеп",
    "population": "16.4",
    "lat": "52.9154851",
    "lon": "33.4744058",
    "region_name": "Брянская область",
    "region_iso_code": "RU-BRY",
    "federal_district": "Центральный",
    "okato": "15244501000",
    "oktmo": "15644101001",
    "kladr_id": "3202000100000",
    "fias_id": "434c6101-648e-4266-8aca-bbbc80856d7a"
  },
  {
    "city": "Севск",
    "population": "6.6",
    "lat": "52.1483358",
    "lon": "34.4918415",
    "region_name": "Брянская область",
    "region_iso_code": "RU-BRY",
    "federal_district": "Центральный",
    "okato": "15248501000",
    "oktmo": "15648101001",
    "kladr_id": "3202200100000",
    "fias_id": "263c5f6f-335b-4cfa-a234-3c61488c3729"
  },
  {
    "city": "Сельцо",
    "population": "16.4",
    "lat": "53.3739884",
    "lon": "34.1059172",
    "region_name": "Брянская область",
    "region_iso_code": "RU-BRY",
    "federal_district": "Центральный",
    "okato": "15425000000",
    "oktmo": "15725000001",
    "kladr_id": "3200000200000",
    "fias_id": "485f4c4d-aced-4b94-b975-88e72b7dcb72"
  },
  {
    "city": "Стародуб",
    "population": "18.2",
    "lat": "52.5852257",
    "lon": "32.760403",
    "region_name": "Брянская область",
    "region_iso_code": "RU-BRY",
    "federal_district": "Центральный",
    "okato": "15250501000",
    "oktmo": "15501000001",
    "kladr_id": "3200000600000",
    "fias_id": "78e19000-cb0d-4e86-8205-242ee9de9e75"
  },
  {
    "city": "Сураж",
    "population": "10.7",
    "lat": "53.0170888",
    "lon": "32.3938878",
    "region_name": "Брянская область",
    "region_iso_code": "RU-BRY",
    "federal_district": "Центральный",
    "okato": "15254501000",
    "oktmo": "15654101001",
    "kladr_id": "3202500100000",
    "fias_id": "565317d8-daf3-4df1-bf3d-6703b0d1500f"
  },
  {
    "city": "Трубчевск",
    "population": "13.6",
    "lat": "52.5791734",
    "lon": "33.7660547",
    "region_name": "Брянская область",
    "region_iso_code": "RU-BRY",
    "federal_district": "Центральный",
    "okato": "15256501000",
    "oktmo": "15656101001",
    "kladr_id": "3202600100000",
    "fias_id": "7c080d22-1f3c-43b0-ba63-1e7de99724c9"
  },
  {
    "city": "Унеча",
    "population": "22.8",
    "lat": "52.8461199",
    "lon": "32.6757629",
    "region_name": "Брянская область",
    "region_iso_code": "RU-BRY",
    "federal_district": "Центральный",
    "okato": "15258501000",
    "oktmo": "15658101001",
    "kladr_id": "3202700100000",
    "fias_id": "6a2d5db9-1871-4f1d-b226-bbc6b8400a44"
  },
  {
    "city": "Фокино",
    "population": "12.8",
    "lat": "53.4554145",
    "lon": "34.4159238",
    "region_name": "Брянская область",
    "region_iso_code": "RU-BRY",
    "federal_district": "Центральный",
    "okato": "15216504000",
    "oktmo": "15710000001",
    "kladr_id": "3200000500000",
    "fias_id": "8d7c89e7-d9b9-4d7a-907c-a654b3a4d23d"
  },
  {
    "city": "Александров",
    "population": "57.9",
    "lat": "56.391819",
    "lon": "38.7111123",
    "region_name": "Владимирская область",
    "region_iso_code": "RU-VLA",
    "federal_district": "Центральный",
    "okato": "17205501000",
    "oktmo": "17605101001",
    "kladr_id": "3300200100000",
    "fias_id": "59e55956-69a2-432f-b880-74cf8ec0b9fe"
  },
  {
    "city": "Владимир",
    "population": "356.9",
    "lat": "56.1280804",
    "lon": "40.4084376",
    "region_name": "Владимирская область",
    "region_iso_code": "RU-VLA",
    "federal_district": "Центральный",
    "okato": "17401000000",
    "oktmo": "17701000001",
    "kladr_id": "3300000100000",
    "fias_id": "f66a00e6-179e-4de9-8ecb-78b0277c9f10"
  },
  {
    "city": "Вязники",
    "population": "34.5",
    "lat": "56.29773",
    "lon": "42.2687398",
    "region_name": "Владимирская область",
    "region_iso_code": "RU-VLA",
    "federal_district": "Центральный",
    "okato": "17210501000",
    "oktmo": "17610101001",
    "kladr_id": "3300300100000",
    "fias_id": "0114e0c6-4060-4473-bc44-779e5a85e9dd"
  },
  {
    "city": "Гороховец",
    "population": "12.6",
    "lat": "56.2021036",
    "lon": "42.6926111",
    "region_name": "Владимирская область",
    "region_iso_code": "RU-VLA",
    "federal_district": "Центральный",
    "okato": "17215501000",
    "oktmo": "17615101001",
    "kladr_id": "3300400100000",
    "fias_id": "e3bc9262-6bcf-42f8-a0bd-a8a00def58bc"
  },
  {
    "city": "Гусь-Хрустальный",
    "population": "52.8",
    "lat": "55.6198751",
    "lon": "40.6579929",
    "region_name": "Владимирская область",
    "region_iso_code": "RU-VLA",
    "federal_district": "Центральный",
    "okato": "17420000000",
    "oktmo": "17720000001",
    "kladr_id": "3300000300000",
    "fias_id": "aa4aa0d7-f97f-4974-9291-c0a530a1ccb6"
  },
  {
    "city": "Камешково",
    "population": "12.0",
    "lat": "56.3490152",
    "lon": "40.9955183",
    "region_name": "Владимирская область",
    "region_iso_code": "RU-VLA",
    "federal_district": "Центральный",
    "okato": "17225501000",
    "oktmo": "17625101001",
    "kladr_id": "3300600100000",
    "fias_id": "13cf312e-735f-4faa-8a7d-9a2622d50438"
  },
  {
    "city": "Карабаново",
    "population": "14.9",
    "lat": "56.3131822",
    "lon": "38.7034257",
    "region_name": "Владимирская область",
    "region_iso_code": "RU-VLA",
    "federal_district": "Центральный",
    "okato": "17205505000",
    "oktmo": "17605105001",
    "kladr_id": "3300200200000",
    "fias_id": "4f178a20-53a7-4032-b62b-7337315e0fc1"
  },
  {
    "city": "Киржач",
    "population": "26.7",
    "lat": "56.1486863",
    "lon": "38.8635701",
    "region_name": "Владимирская область",
    "region_iso_code": "RU-VLA",
    "federal_district": "Центральный",
    "okato": "17230501000",
    "oktmo": "17630101001",
    "kladr_id": "3300700100000",
    "fias_id": "115db243-1238-412f-a2a1-6d53ef30ba9e"
  },
  {
    "city": "Ковров",
    "population": "135.7",
    "lat": "56.3554349",
    "lon": "41.3170576",
    "region_name": "Владимирская область",
    "region_iso_code": "RU-VLA",
    "federal_district": "Центральный",
    "okato": "17425000000",
    "oktmo": "17725000001",
    "kladr_id": "3300000400000",
    "fias_id": "0b4978e2-e64c-4db1-b84d-93cf34bdb04b"
  },
  {
    "city": "Кольчугино",
    "population": "42.0",
    "lat": "56.3327254",
    "lon": "39.391336",
    "region_name": "Владимирская область",
    "region_iso_code": "RU-VLA",
    "federal_district": "Центральный",
    "okato": "17240501000",
    "oktmo": "17640101001",
    "kladr_id": "3300900100000",
    "fias_id": "8f9faad4-ff93-471d-b0c0-c8e5c0162dee"
  },
  {
    "city": "Костерево",
    "population": "8.1",
    "lat": "55.9337222",
    "lon": "39.6247398",
    "region_name": "Владимирская область",
    "region_iso_code": "RU-VLA",
    "federal_district": "Центральный",
    "okato": "17246510000",
    "oktmo": "17646110001",
    "kladr_id": "3301200200000",
    "fias_id": "50b6831d-52f4-4905-93d7-8e42812cd947"
  },
  {
    "city": "Курлово",
    "population": "5.8",
    "lat": "55.452698",
    "lon": "40.6124108",
    "region_name": "Владимирская область",
    "region_iso_code": "RU-VLA",
    "federal_district": "Центральный",
    "okato": "17220515000",
    "oktmo": "17620115001",
    "kladr_id": "3300500200000",
    "fias_id": "4f68f8c7-bf54-48a6-8165-0313d75a83c2"
  },
  {
    "city": "Лакинск",
    "population": "14.1",
    "lat": "56.0180587",
    "lon": "39.956551",
    "region_name": "Владимирская область",
    "region_iso_code": "RU-VLA",
    "federal_district": "Центральный",
    "okato": "17250503000",
    "oktmo": "17650110001",
    "kladr_id": "3301400200000",
    "fias_id": "67eb946d-db25-4ad2-9852-6436ed35b39e"
  },
  {
    "city": "Меленки",
    "population": "13.5",
    "lat": "55.3387515",
    "lon": "41.6340046",
    "region_name": "Владимирская область",
    "region_iso_code": "RU-VLA",
    "federal_district": "Центральный",
    "okato": "17242501000",
    "oktmo": "17642101001",
    "kladr_id": "3301000100000",
    "fias_id": "710f2d29-5c22-4d4d-be27-04713381c676"
  },
  {
    "city": "Муром",
    "population": "107.0",
    "lat": "55.5630311",
    "lon": "42.0231362",
    "region_name": "Владимирская область",
    "region_iso_code": "RU-VLA",
    "federal_district": "Центральный",
    "okato": "17435000000",
    "oktmo": "17735000001",
    "kladr_id": "3300000500000",
    "fias_id": "0d7d5d87-f0a6-428f-b655-d3be106c64a2"
  },
  {
    "city": "Петушки",
    "population": "12.5",
    "lat": "55.9298134",
    "lon": "39.4508075",
    "region_name": "Владимирская область",
    "region_iso_code": "RU-VLA",
    "federal_district": "Центральный",
    "okato": "17246501000",
    "oktmo": "17646101001",
    "kladr_id": "3301200100000",
    "fias_id": "b7ba6bfc-4b0c-4b05-88bd-267d50b36850"
  },
  {
    "city": "Покров",
    "population": "16.7",
    "lat": "55.9166398",
    "lon": "39.1734526",
    "region_name": "Владимирская область",
    "region_iso_code": "RU-VLA",
    "federal_district": "Центральный",
    "okato": "17246520000",
    "oktmo": "17646120001",
    "kladr_id": "3301200300000",
    "fias_id": "f1c2252b-c3da-43f4-86ea-5f05812e99d5"
  },
  {
    "city": "Радужный",
    "population": "18.3",
    "lat": "55.9960277",
    "lon": "40.3321855",
    "region_name": "Владимирская область",
    "region_iso_code": "RU-VLA",
    "federal_district": "Центральный",
    "okato": "17537000000",
    "oktmo": "17737000001",
    "kladr_id": "3300000200000",
    "fias_id": "c0ac6992-e48e-4648-b176-f56e7bcda57b"
  },
  {
    "city": "Собинка",
    "population": "17.3",
    "lat": "55.9939169",
    "lon": "40.0179653",
    "region_name": "Владимирская область",
    "region_iso_code": "RU-VLA",
    "federal_district": "Центральный",
    "okato": "17250501000",
    "oktmo": "17650101001",
    "kladr_id": "3301400100000",
    "fias_id": "d33946c4-bda9-43a5-b5c4-1157ae28149a"
  },
  {
    "city": "Струнино",
    "population": "12.9",
    "lat": "56.3749967",
    "lon": "38.5839667",
    "region_name": "Владимирская область",
    "region_iso_code": "RU-VLA",
    "federal_district": "Центральный",
    "okato": "17205508000",
    "oktmo": "17605108001",
    "kladr_id": "3300200300000",
    "fias_id": "9f490940-079f-4bf9-9931-48952c1bea4f"
  },
  {
    "city": "Судогда",
    "population": "10.1",
    "lat": "55.9498056",
    "lon": "40.8562939",
    "region_name": "Владимирская область",
    "region_iso_code": "RU-VLA",
    "federal_district": "Центральный",
    "okato": "17252501000",
    "oktmo": "17652101001",
    "kladr_id": "3301500100000",
    "fias_id": "469a6b26-cb42-4db7-8fe7-758b946956c4"
  },
  {
    "city": "Суздаль",
    "population": "9.6",
    "lat": "56.4274441",
    "lon": "40.4525692",
    "region_name": "Владимирская область",
    "region_iso_code": "RU-VLA",
    "federal_district": "Центральный",
    "okato": "17254501000",
    "oktmo": "17654101001",
    "kladr_id": "3301600100000",
    "fias_id": "f347f78e-f991-4b0b-bfbd-600ac927b009"
  },
  {
    "city": "Юрьев-Польский",
    "population": "18.1",
    "lat": "56.4937757",
    "lon": "39.6680539",
    "region_name": "Владимирская область",
    "region_iso_code": "RU-VLA",
    "federal_district": "Центральный",
    "okato": "17256501000",
    "oktmo": "17656101001",
    "kladr_id": "3301700100000",
    "fias_id": "4859c31b-fba4-460a-9543-befc791da8a9"
  },
  {
    "city": "Волгоград",
    "population": "1009.0",
    "lat": "48.7070042",
    "lon": "44.5170339",
    "region_name": "Волгоградская область",
    "region_iso_code": "RU-VGG",
    "federal_district": "Южный",
    "okato": "18401000000",
    "oktmo": "18701000001",
    "kladr_id": "3400000100000",
    "fias_id": "a52b7389-0cfe-46fb-ae15-298652a64cf8"
  },
  {
    "city": "Волжский",
    "population": "323.9",
    "lat": "48.7978209",
    "lon": "44.7462538",
    "region_name": "Волгоградская область",
    "region_iso_code": "RU-VGG",
    "federal_district": "Южный",
    "okato": "18410000000",
    "oktmo": "18710000001",
    "kladr_id": "3400000200000",
    "fias_id": "bc5ed788-84c8-493e-9598-7a15a9f1e4c1"
  },
  {
    "city": "Дубовка",
    "population": "13.7",
    "lat": "49.0554742",
    "lon": "44.8270085",
    "region_name": "Волгоградская область",
    "region_iso_code": "RU-VGG",
    "federal_district": "Южный",
    "okato": "18208501000",
    "oktmo": "18608101001",
    "kladr_id": "3400600100000",
    "fias_id": "66a2c07f-45b1-47d2-ab51-fa16288d07a6"
  },
  {
    "city": "Жирновск",
    "population": "15.5",
    "lat": "50.9768814",
    "lon": "44.7858202",
    "region_name": "Волгоградская область",
    "region_iso_code": "RU-VGG",
    "federal_district": "Южный",
    "okato": "18212501000",
    "oktmo": "18612101001",
    "kladr_id": "3400800100000",
    "fias_id": "1f9bda6f-45a5-4bf5-b1d8-434d763ea834"
  },
  {
    "city": "Калач-на-Дону",
    "population": "23.6",
    "lat": "48.6889024",
    "lon": "43.5306303",
    "region_name": "Волгоградская область",
    "region_iso_code": "RU-VGG",
    "federal_district": "Южный",
    "okato": "18216501000",
    "oktmo": "18616101001",
    "kladr_id": "3401000100000",
    "fias_id": "acc6220a-f624-4880-84d8-670319b0e25d"
  },
  {
    "city": "Камышин",
    "population": "109.9",
    "lat": "50.0651529",
    "lon": "45.3844202",
    "region_name": "Волгоградская область",
    "region_iso_code": "RU-VGG",
    "federal_district": "Южный",
    "okato": "18415000000",
    "oktmo": "18715000001",
    "kladr_id": "3400000300000",
    "fias_id": "0f9fb687-8d03-41a2-968f-033a2ba44f2f"
  },
  {
    "city": "Котельниково",
    "population": "20.4",
    "lat": "47.6310259",
    "lon": "43.1330872",
    "region_name": "Волгоградская область",
    "region_iso_code": "RU-VGG",
    "federal_district": "Южный",
    "okato": "18224501000",
    "oktmo": "18624101001",
    "kladr_id": "3401400100000",
    "fias_id": "ec52e094-acd0-49ab-bc84-9ce0aa80c7c0"
  },
  {
    "city": "Котово",
    "population": "21.4",
    "lat": "50.3205766",
    "lon": "44.8030699",
    "region_name": "Волгоградская область",
    "region_iso_code": "RU-VGG",
    "federal_district": "Южный",
    "okato": "18226501000",
    "oktmo": "18626101001",
    "kladr_id": "3401500100000",
    "fias_id": "6a9dded3-afcf-46ba-9881-5048c3bec5a3"
  },
  {
    "city": "Краснослободск",
    "population": "17.1",
    "lat": "48.7068721",
    "lon": "44.5630857",
    "region_name": "Волгоградская область",
    "region_iso_code": "RU-VGG",
    "federal_district": "Южный",
    "okato": "18251507000",
    "oktmo": "18651107001",
    "kladr_id": "3402800200000",
    "fias_id": "68e32d89-51bb-4030-b697-ceca53b9e740"
  },
  {
    "city": "Ленинск",
    "population": "14.4",
    "lat": "48.6936061",
    "lon": "45.1992692",
    "region_name": "Волгоградская область",
    "region_iso_code": "RU-VGG",
    "federal_district": "Южный",
    "okato": "18230501000",
    "oktmo": "18630101001",
    "kladr_id": "3401700100000",
    "fias_id": "bee1ee84-fdcf-45b2-8c87-7b015efc4332"
  },
  {
    "city": "Михайловка",
    "population": "57.4",
    "lat": "50.0708719",
    "lon": "43.2401512",
    "region_name": "Волгоградская область",
    "region_iso_code": "RU-VGG",
    "federal_district": "Южный",
    "okato": "18420000000",
    "oktmo": "18720000001",
    "kladr_id": "3400000400000",
    "fias_id": "f02dbf6d-57ad-49bc-8011-603bf7126bb5"
  },
  {
    "city": "Николаевск",
    "population": "13.4",
    "lat": "50.0165306",
    "lon": "45.4731658",
    "region_name": "Волгоградская область",
    "region_iso_code": "RU-VGG",
    "federal_district": "Южный",
    "okato": "18236501000",
    "oktmo": "18636101001",
    "kladr_id": "3402000100000",
    "fias_id": "8680a7a3-5c93-4c0d-ae64-d828306b2310"
  },
  {
    "city": "Новоаннинский",
    "population": "15.9",
    "lat": "50.5296067",
    "lon": "42.6666439",
    "region_name": "Волгоградская область",
    "region_iso_code": "RU-VGG",
    "federal_district": "Южный",
    "okato": "18238501000",
    "oktmo": "18638101001",
    "kladr_id": "3402100100000",
    "fias_id": "254f7c3a-fc21-4405-8779-eee0a7a5c63f"
  },
  {
    "city": "Палласовка",
    "population": "14.5",
    "lat": "50.0500944",
    "lon": "46.8804277",
    "region_name": "Волгоградская область",
    "region_iso_code": "RU-VGG",
    "federal_district": "Южный",
    "okato": "18245501000",
    "oktmo": "18645101",
    "kladr_id": "3402400100000",
    "fias_id": "e6891ad3-e99a-48fa-93e5-805da20e849c"
  },
  {
    "city": "Петров Вал",
    "population": "12.4",
    "lat": "50.1380557",
    "lon": "45.20914",
    "region_name": "Волгоградская область",
    "region_iso_code": "RU-VGG",
    "federal_district": "Южный",
    "okato": "18218503000",
    "oktmo": "18618103001",
    "kladr_id": "3401100200000",
    "fias_id": "02324444-36d6-4af8-a9af-15b77576adea"
  },
  {
    "city": "Серафимович",
    "population": "8.6",
    "lat": "49.5663183",
    "lon": "42.7360402",
    "region_name": "Волгоградская область",
    "region_iso_code": "RU-VGG",
    "federal_district": "Южный",
    "okato": "18250501000",
    "oktmo": "18650101001",
    "kladr_id": "3402700100000",
    "fias_id": "fb921dd7-0b8e-42a6-a5bb-3d1387f090d0"
  },
  {
    "city": "Суровикино",
    "population": "18.2",
    "lat": "48.618917",
    "lon": "42.8541163",
    "region_name": "Волгоградская область",
    "region_iso_code": "RU-VGG",
    "federal_district": "Южный",
    "okato": "18253501000",
    "oktmo": "18653101001",
    "kladr_id": "3403000100000",
    "fias_id": "b5bab4ba-e94f-4178-b6f7-67e01c89bec2"
  },
  {
    "city": "Урюпинск",
    "population": "36.7",
    "lat": "50.7903789",
    "lon": "42.0288513",
    "region_name": "Волгоградская область",
    "region_iso_code": "RU-VGG",
    "federal_district": "Южный",
    "okato": "18425000000",
    "oktmo": "18725000001",
    "kladr_id": "3400000500000",
    "fias_id": "2e5879fc-35c2-4354-816b-f1fce74ece87"
  },
  {
    "city": "Фролово",
    "population": "36.2",
    "lat": "49.7649148",
    "lon": "43.6648641",
    "region_name": "Волгоградская область",
    "region_iso_code": "RU-VGG",
    "federal_district": "Южный",
    "okato": "18428000000",
    "oktmo": "18728000001",
    "kladr_id": "3400000600000",
    "fias_id": "57e3991f-e685-4ba2-9cef-9988e6fa5862"
  },
  {
    "city": "Бабаево",
    "population": "11.4",
    "lat": "59.3892583",
    "lon": "35.9377058",
    "region_name": "Вологодская область",
    "region_iso_code": "RU-VLG",
    "federal_district": "Северо-Западный",
    "okato": "19205501000",
    "oktmo": "19605101001",
    "kladr_id": "3500200100000",
    "fias_id": "e61e9415-3cdc-4e44-9cdf-a98662bab04f"
  },
  {
    "city": "Белозерск",
    "population": "8.6",
    "lat": "60.0308381",
    "lon": "37.7890586",
    "region_name": "Вологодская область",
    "region_iso_code": "RU-VLG",
    "federal_district": "Северо-Западный",
    "okato": "19210501000",
    "oktmo": "19610101001",
    "kladr_id": "3500400100000",
    "fias_id": "9444e5a5-b164-42b8-b4ff-e3b4c157fc54"
  },
  {
    "city": "Великий Устюг",
    "population": "31.0",
    "lat": "60.7603913",
    "lon": "46.3054414",
    "region_name": "Вологодская область",
    "region_iso_code": "RU-VLG",
    "federal_district": "Северо-Западный",
    "okato": "19410000000",
    "oktmo": "19614101001",
    "kladr_id": "3500600100000",
    "fias_id": "9db452cb-452a-4373-9610-a265b3b55653"
  },
  {
    "city": "Вологда",
    "population": "310.3",
    "lat": "59.2483905",
    "lon": "39.8355662",
    "region_name": "Вологодская область",
    "region_iso_code": "RU-VLG",
    "federal_district": "Северо-Западный",
    "okato": "19401000000",
    "oktmo": "19701000001",
    "kladr_id": "3500000100000",
    "fias_id": "023484a5-f98d-4849-82e1-b7e0444b54ef"
  },
  {
    "city": "Вытегра",
    "population": "10.2",
    "lat": "61.0063465",
    "lon": "36.4495137",
    "region_name": "Вологодская область",
    "region_iso_code": "RU-VLG",
    "federal_district": "Северо-Западный",
    "okato": "19222501000",
    "oktmo": "19622101001",
    "kladr_id": "3500900100000",
    "fias_id": "f66fbc22-445e-42ab-8f53-3de507d877c9"
  },
  {
    "city": "Грязовец",
    "population": "14.8",
    "lat": "58.8757553",
    "lon": "40.2485362",
    "region_name": "Вологодская область",
    "region_iso_code": "RU-VLG",
    "federal_district": "Северо-Западный",
    "okato": "19224501000",
    "oktmo": "19624101001",
    "kladr_id": "3501000100000",
    "fias_id": "aeee36bc-969a-4cc6-9fb3-5e237e776068"
  },
  {
    "city": "Кадников",
    "population": "4.5",
    "lat": "59.5037764",
    "lon": "40.3441148",
    "region_name": "Вологодская область",
    "region_iso_code": "RU-VLG",
    "federal_district": "Северо-Западный",
    "okato": "19238504000",
    "oktmo": "19638104001",
    "kladr_id": "3501700200000",
    "fias_id": "eb52b8bf-131d-4250-9a09-c0d41a7d42ee"
  },
  {
    "city": "Кириллов",
    "population": "7.5",
    "lat": "59.8591523",
    "lon": "38.3748782",
    "region_name": "Вологодская область",
    "region_iso_code": "RU-VLG",
    "federal_district": "Северо-Западный",
    "okato": "19228501000",
    "oktmo": "19628101001",
    "kladr_id": "3501200100000",
    "fias_id": "bfe722ba-8bfd-4dbd-acc5-73da667a0f95"
  },
  {
    "city": "Красавино",
    "population": "5.9",
    "lat": "60.9612823",
    "lon": "46.4814116",
    "region_name": "Вологодская область",
    "region_iso_code": "RU-VLG",
    "federal_district": "Северо-Западный",
    "okato": "19410501000",
    "oktmo": "19614105001",
    "kladr_id": "3500600200000",
    "fias_id": "78a546b6-196d-407f-a082-e7e85ff4acad"
  },
  {
    "city": "Никольск",
    "population": "7.9",
    "lat": "59.5351837",
    "lon": "45.4576137",
    "region_name": "Вологодская область",
    "region_iso_code": "RU-VLG",
    "federal_district": "Северо-Западный",
    "okato": "19234501000",
    "oktmo": "19634101001",
    "kladr_id": "3501500100000",
    "fias_id": "9b602724-8b73-4979-ae01-3ba8a22c93f2"
  },
  {
    "city": "Сокол",
    "population": "36.4",
    "lat": "59.4758605",
    "lon": "40.1114187",
    "region_name": "Вологодская область",
    "region_iso_code": "RU-VLG",
    "federal_district": "Северо-Западный",
    "okato": "19420000000",
    "oktmo": "19638101001",
    "kladr_id": "3501700100000",
    "fias_id": "500b9e8f-79cc-4c35-b497-110f550d6615"
  },
  {
    "city": "Тотьма",
    "population": "9.7",
    "lat": "59.9734998",
    "lon": "42.7589506",
    "region_name": "Вологодская область",
    "region_iso_code": "RU-VLG",
    "federal_district": "Северо-Западный",
    "okato": "19246501000",
    "oktmo": "19646101001",
    "kladr_id": "3502000100000",
    "fias_id": "3a0d6df8-c23f-4435-83bb-9f97dd2e3343"
  },
  {
    "city": "Устюжна",
    "population": "8.4",
    "lat": "58.8383117",
    "lon": "36.4425478",
    "region_name": "Вологодская область",
    "region_iso_code": "RU-VLG",
    "federal_district": "Северо-Западный",
    "okato": "19250501000",
    "oktmo": "19650101001",
    "kladr_id": "3502200100000",
    "fias_id": "3c2ceeea-04a9-4171-b4dd-341620290258"
  },
  {
    "city": "Харовск",
    "population": "8.8",
    "lat": "59.9479423",
    "lon": "40.2000298",
    "region_name": "Вологодская область",
    "region_iso_code": "RU-VLG",
    "federal_district": "Северо-Западный",
    "okato": "19252501000",
    "oktmo": "19652101001",
    "kladr_id": "3502300100000",
    "fias_id": "e5e0513c-fc84-4373-b3ee-05f8382f8110"
  },
  {
    "city": "Череповец",
    "population": "314.8",
    "lat": "59.1269212",
    "lon": "37.9090497",
    "region_name": "Вологодская область",
    "region_iso_code": "RU-VLG",
    "federal_district": "Северо-Западный",
    "okato": "19430000000",
    "oktmo": "19730000001",
    "kladr_id": "3500000200000",
    "fias_id": "b4c30848-5181-44b4-88fa-456e1c4aeb0f"
  },
  {
    "city": "Бобров",
    "population": "20.0",
    "lat": "51.0901649",
    "lon": "40.0318256",
    "region_name": "Воронежская область",
    "region_iso_code": "RU-VOR",
    "federal_district": "Центральный",
    "okato": "20204501000",
    "oktmo": "20604101001",
    "kladr_id": "3600300100000",
    "fias_id": "0a50bda2-e801-4e11-bcc0-8c6469d46a5d"
  },
  {
    "city": "Богучар",
    "population": "11.0",
    "lat": "49.9352454",
    "lon": "40.5590801",
    "region_name": "Воронежская область",
    "region_iso_code": "RU-VOR",
    "federal_district": "Центральный",
    "okato": "20205501000",
    "oktmo": "20605101001",
    "kladr_id": "3600400100000",
    "fias_id": "33b88f52-819d-4ba5-aa70-3fe4ccfd33d6"
  },
  {
    "city": "Борисоглебск",
    "population": "59.9",
    "lat": "51.3655754",
    "lon": "42.1008334",
    "region_name": "Воронежская область",
    "region_iso_code": "RU-VOR",
    "federal_district": "Центральный",
    "okato": "20410000000",
    "oktmo": "20710000001",
    "kladr_id": "3600500100000",
    "fias_id": "e5c49f70-5235-49ef-a16b-816114b36566"
  },
  {
    "city": "Бутурлиновка",
    "population": "24.0",
    "lat": "50.8311818",
    "lon": "40.5976923",
    "region_name": "Воронежская область",
    "region_iso_code": "RU-VOR",
    "federal_district": "Центральный",
    "okato": "20208501000",
    "oktmo": "20608101001",
    "kladr_id": "3600600100000",
    "fias_id": "b3c350d7-8c81-4016-b198-f197536e8321"
  },
  {
    "city": "Воронеж",
    "population": "1058.3",
    "lat": "51.6593332",
    "lon": "39.1969229",
    "region_name": "Воронежская область",
    "region_iso_code": "RU-VOR",
    "federal_district": "Центральный",
    "okato": "20401000000",
    "oktmo": "20701000001",
    "kladr_id": "3600000100000",
    "fias_id": "5bf5ddff-6353-4a3d-80c4-6fb27f00c6c1"
  },
  {
    "city": "Калач",
    "population": "18.2",
    "lat": "50.4242134",
    "lon": "41.0162014",
    "region_name": "Воронежская область",
    "region_iso_code": "RU-VOR",
    "federal_district": "Центральный",
    "okato": "20215501000",
    "oktmo": "20615101001",
    "kladr_id": "3601100100000",
    "fias_id": "57a863b5-02a7-482a-8320-a3d165c4bfd0"
  },
  {
    "city": "Лиски",
    "population": "53.5",
    "lat": "50.9945626",
    "lon": "39.5184909",
    "region_name": "Воронежская область",
    "region_iso_code": "RU-VOR",
    "federal_district": "Центральный",
    "okato": "20221501000",
    "oktmo": "20621101001",
    "kladr_id": "3601500100000",
    "fias_id": "e0a82358-88c2-44ab-b402-c450e1aa52a8"
  },
  {
    "city": "Нововоронеж",
    "population": "31.5",
    "lat": "51.3091524",
    "lon": "39.2162843",
    "region_name": "Воронежская область",
    "region_iso_code": "RU-VOR",
    "federal_district": "Центральный",
    "okato": "20427000000",
    "oktmo": "20727000001",
    "kladr_id": "3600000300000",
    "fias_id": "c7cdacb9-6a1e-4402-8bc6-6ec36a42d05c"
  },
  {
    "city": "Новохоперск",
    "population": "5.9",
    "lat": "51.0952211",
    "lon": "41.6173404",
    "region_name": "Воронежская область",
    "region_iso_code": "RU-VOR",
    "federal_district": "Центральный",
    "okato": "20227501000",
    "oktmo": "20627101001",
    "kladr_id": "3601800100000",
    "fias_id": "43fe280f-6fa3-4a06-8daf-94586e2bea44"
  },
  {
    "city": "Острогожск",
    "population": "31.8",
    "lat": "50.8677905",
    "lon": "39.0407746",
    "region_name": "Воронежская область",
    "region_iso_code": "RU-VOR",
    "federal_district": "Центральный",
    "okato": "20231501000",
    "oktmo": "20631101001",
    "kladr_id": "3602000100000",
    "fias_id": "8434550d-dd9b-4bc7-8e5b-d43a991753e2"
  },
  {
    "city": "Павловск",
    "population": "24.5",
    "lat": "50.453455",
    "lon": "40.136874",
    "region_name": "Воронежская область",
    "region_iso_code": "RU-VOR",
    "federal_district": "Центральный",
    "okato": "20233501000",
    "oktmo": "20633101001",
    "kladr_id": "3602100100000",
    "fias_id": "f4a89d85-b770-4d58-b205-31165a9958b8"
  },
  {
    "city": "Поворино",
    "population": "16.7",
    "lat": "51.1954419",
    "lon": "42.2472726",
    "region_name": "Воронежская область",
    "region_iso_code": "RU-VOR",
    "federal_district": "Центральный",
    "okato": "20239501000",
    "oktmo": "20639101001",
    "kladr_id": "3602400100000",
    "fias_id": "9cb55edf-0fb2-46af-8f00-02b15c2f1644"
  },
  {
    "city": "Россошь",
    "population": "62.6",
    "lat": "50.1701949",
    "lon": "39.6226965",
    "region_name": "Воронежская область",
    "region_iso_code": "RU-VOR",
    "federal_district": "Центральный",
    "okato": "20247501000",
    "oktmo": "20647101001",
    "kladr_id": "3602800100000",
    "fias_id": "1ed74fcf-2dd0-460a-99b9-029ca382517d"
  },
  {
    "city": "Семилуки",
    "population": "27.0",
    "lat": "51.6951644",
    "lon": "39.0190454",
    "region_name": "Воронежская область",
    "region_iso_code": "RU-VOR",
    "federal_district": "Центральный",
    "okato": "20249501000",
    "oktmo": "20649101001",
    "kladr_id": "3602900100000",
    "fias_id": "15d507b5-f67e-4ee6-9f25-683562699fac"
  },
  {
    "city": "Эртиль",
    "population": "10.1",
    "lat": "51.830932",
    "lon": "40.8074182",
    "region_name": "Воронежская область",
    "region_iso_code": "RU-VOR",
    "federal_district": "Центральный",
    "okato": "20258501000",
    "oktmo": "20658101001",
    "kladr_id": "3603300100000",
    "fias_id": "fdbadb36-e4f6-4843-8f1f-80bd4fb4381e"
  },
  {
    "city": "Биробиджан",
    "population": "71.8",
    "lat": "48.7946446",
    "lon": "132.9217207",
    "region_name": "Еврейская автономная область",
    "region_iso_code": "RU-YEV",
    "federal_district": "Дальневосточный",
    "okato": "99401000000",
    "oktmo": "99701000001",
    "kladr_id": "7900000100000",
    "fias_id": "5d133391-46ee-496b-83a6-efeeaa903643"
  },
  {
    "city": "Облучье",
    "population": "8.4",
    "lat": "49.0189345",
    "lon": "131.0540102",
    "region_name": "Еврейская автономная область",
    "region_iso_code": "RU-YEV",
    "federal_district": "Дальневосточный",
    "okato": "99220501000",
    "oktmo": "99620101001",
    "kladr_id": "7900300100000",
    "fias_id": "b60c1e9f-9355-47ef-b5a3-82906d074bd4"
  },
  {
    "city": "Балей",
    "population": "10.7",
    "lat": "51.5823759",
    "lon": "116.6379549",
    "region_name": "Забайкальский край",
    "region_iso_code": "RU-ZAB",
    "federal_district": "Дальневосточный",
    "okato": "76206501000",
    "oktmo": "76606101001",
    "kladr_id": "7500400100000",
    "fias_id": "29a51a64-5ca3-4cc6-87ff-9cdfcc17642e"
  },
  {
    "city": "Борзя",
    "population": "29.2",
    "lat": "50.3876058",
    "lon": "116.5234779",
    "region_name": "Забайкальский край",
    "region_iso_code": "RU-ZAB",
    "federal_district": "Дальневосточный",
    "okato": "76209501000",
    "oktmo": "76609101001",
    "kladr_id": "7500500100000",
    "fias_id": "d4b135b9-4504-4bae-8585-da058d350f58"
  },
  {
    "city": "Краснокаменск",
    "population": "51.4",
    "lat": "50.0929703",
    "lon": "118.0323936",
    "region_name": "Забайкальский край",
    "region_iso_code": "RU-ZAB",
    "federal_district": "Дальневосточный",
    "okato": "76221501000",
    "oktmo": "76621101001",
    "kladr_id": "7501100100000",
    "fias_id": "3c9d5e9e-2922-4e9e-9e49-dbe6faf01fb2"
  },
  {
    "city": "Могоча",
    "population": "13.0",
    "lat": "53.7361398",
    "lon": "119.7660867",
    "region_name": "Забайкальский край",
    "region_iso_code": "RU-ZAB",
    "federal_district": "Дальневосточный",
    "okato": "76226501000",
    "oktmo": "76626101001",
    "kladr_id": "7501400100000",
    "fias_id": "29eb6b99-27ad-493c-9fd1-a83fe8acdf24"
  },
  {
    "city": "Нерчинск",
    "population": "14.7",
    "lat": "51.9594977",
    "lon": "116.5852383",
    "region_name": "Забайкальский край",
    "region_iso_code": "RU-ZAB",
    "federal_district": "Дальневосточный",
    "okato": "76228501000",
    "oktmo": "76628101",
    "kladr_id": "7501500100000",
    "fias_id": "ba325548-ac92-4a21-904b-bb535e5fe249"
  },
  {
    "city": "Петровск-Забайкальский",
    "population": "15.8",
    "lat": "51.2748592",
    "lon": "108.846681",
    "region_name": "Забайкальский край",
    "region_iso_code": "RU-ZAB",
    "federal_district": "Дальневосточный",
    "okato": "76236501000",
    "oktmo": "76715000001",
    "kladr_id": "7501900100000",
    "fias_id": "b26bb2c1-f79b-4c97-9d2d-e73790cfe622"
  },
  {
    "city": "Сретенск",
    "population": "6.4",
    "lat": "52.2461454",
    "lon": "117.7117842",
    "region_name": "Забайкальский край",
    "region_iso_code": "RU-ZAB",
    "federal_district": "Дальневосточный",
    "okato": "76240501000",
    "oktmo": "76640101001",
    "kladr_id": "7502100100000",
    "fias_id": "f9dd7993-4953-4980-bbcc-2666b94b2a06"
  },
  {
    "city": "Хилок",
    "population": "10.3",
    "lat": "51.3634856",
    "lon": "110.4590898",
    "region_name": "Забайкальский край",
    "region_iso_code": "RU-ZAB",
    "federal_district": "Дальневосточный",
    "okato": "76247501000",
    "oktmo": "76647101001",
    "kladr_id": "7502500100000",
    "fias_id": "a4b18a69-c5df-4022-ba9b-a29f99acfa42"
  },
  {
    "city": "Чита",
    "population": "351.8",
    "lat": "52.0340142",
    "lon": "113.4994",
    "region_name": "Забайкальский край",
    "region_iso_code": "RU-ZAB",
    "federal_district": "Дальневосточный",
    "okato": "76401000000",
    "oktmo": "76701000001",
    "kladr_id": "7500000100000",
    "fias_id": "2d9abaa6-85a6-4f1f-a1bd-14b76ec17d9c"
  },
  {
    "city": "Шилка",
    "population": "12.5",
    "lat": "51.8497035",
    "lon": "116.0334461",
    "region_name": "Забайкальский край",
    "region_iso_code": "RU-ZAB",
    "federal_district": "Дальневосточный",
    "okato": "76254501000",
    "oktmo": "76654101001",
    "kladr_id": "7502800100000",
    "fias_id": "69efa85f-c9d7-44bb-bcda-95205cd1a647"
  },
  {
    "city": "Вичуга",
    "population": "33.3",
    "lat": "57.2044698",
    "lon": "41.9132201",
    "region_name": "Ивановская область",
    "region_iso_code": "RU-IVA",
    "federal_district": "Центральный",
    "okato": "24403000000",
    "oktmo": "24703000001",
    "kladr_id": "3700300100000",
    "fias_id": "3d518b4e-86b2-48d5-bcf3-48f107165918"
  },
  {
    "city": "Гаврилов Посад",
    "population": "5.6",
    "lat": "56.5586946",
    "lon": "40.1228906",
    "region_name": "Ивановская область",
    "region_iso_code": "RU-IVA",
    "federal_district": "Центральный",
    "okato": "24203501000",
    "oktmo": "24603101001",
    "kladr_id": "3700400100000",
    "fias_id": "3f81927e-bc4b-45c7-a962-b80c0e216115"
  },
  {
    "city": "Заволжск",
    "population": "9.6",
    "lat": "57.4918141",
    "lon": "42.1375625",
    "region_name": "Ивановская область",
    "region_iso_code": "RU-IVA",
    "federal_district": "Центральный",
    "okato": "24205501000",
    "oktmo": "24605101001",
    "kladr_id": "3700500100000",
    "fias_id": "3bf1c329-e556-4d56-82d0-3b1b42b298da"
  },
  {
    "city": "Иваново",
    "population": "404.6",
    "lat": "56.9993792",
    "lon": "40.9728272",
    "region_name": "Ивановская область",
    "region_iso_code": "RU-IVA",
    "federal_district": "Центральный",
    "okato": "24401000000",
    "oktmo": "24701000001",
    "kladr_id": "3700000100000",
    "fias_id": "40c6863e-2a5f-4033-a377-3416533948bd"
  },
  {
    "city": "Кинешма",
    "population": "81.0",
    "lat": "57.4425463",
    "lon": "42.168914",
    "region_name": "Ивановская область",
    "region_iso_code": "RU-IVA",
    "federal_district": "Центральный",
    "okato": "24405000000",
    "oktmo": "24705000001",
    "kladr_id": "3700000200000",
    "fias_id": "df284e77-a45c-411d-8901-94c91f4a92e5"
  },
  {
    "city": "Комсомольск",
    "population": "8.0",
    "lat": "57.0273052",
    "lon": "40.3776851",
    "region_name": "Ивановская область",
    "region_iso_code": "RU-IVA",
    "federal_district": "Центральный",
    "okato": "24213501000",
    "oktmo": "24613101001",
    "kladr_id": "3700800100000",
    "fias_id": "d812b7bf-68de-4e11-95d6-39f7c8ec111e"
  },
  {
    "city": "Кохма",
    "population": "30.2",
    "lat": "56.9324606",
    "lon": "41.0931657",
    "region_name": "Ивановская область",
    "region_iso_code": "RU-IVA",
    "federal_district": "Центральный",
    "okato": "24207504000",
    "oktmo": "24706000001",
    "kladr_id": "3700100200000",
    "fias_id": "022e301b-514f-477f-9d1e-f60430c40429"
  },
  {
    "city": "Наволоки",
    "population": "9.1",
    "lat": "57.4679066",
    "lon": "41.9608002",
    "region_name": "Ивановская область",
    "region_iso_code": "RU-IVA",
    "federal_district": "Центральный",
    "okato": "24211504000",
    "oktmo": "24611104001",
    "kladr_id": "3700700200000",
    "fias_id": "36d31ef0-a525-4be4-a6e9-28ced781dfae"
  },
  {
    "city": "Плес",
    "population": "1.7",
    "lat": "57.4606031",
    "lon": "41.5122672",
    "region_name": "Ивановская область",
    "region_iso_code": "RU-IVA",
    "federal_district": "Центральный",
    "okato": "24220504000",
    "oktmo": "24620104001",
    "kladr_id": "3701300200000",
    "fias_id": "8bb29a7a-de9c-4c21-ad15-3af39f0a41fa"
  },
  {
    "city": "Приволжск",
    "population": "15.3",
    "lat": "57.3805743",
    "lon": "41.2808565",
    "region_name": "Ивановская область",
    "region_iso_code": "RU-IVA",
    "federal_district": "Центральный",
    "okato": "24220506000",
    "oktmo": "24620106001",
    "kladr_id": "3701300100000",
    "fias_id": "43706edd-5cf4-4400-8e60-03ea3660c25f"
  },
  {
    "city": "Пучеж",
    "population": "6.3",
    "lat": "56.9820688",
    "lon": "43.1683321",
    "region_name": "Ивановская область",
    "region_iso_code": "RU-IVA",
    "federal_district": "Центральный",
    "okato": "24221501000",
    "oktmo": "24621101001",
    "kladr_id": "3701400100000",
    "fias_id": "a85feb12-89e9-441d-956a-8510493cdc8d"
  },
  {
    "city": "Родники",
    "population": "23.9",
    "lat": "57.1025975",
    "lon": "41.7298834",
    "region_name": "Ивановская область",
    "region_iso_code": "RU-IVA",
    "federal_district": "Центральный",
    "okato": "24223501000",
    "oktmo": "24623101001",
    "kladr_id": "3701500100000",
    "fias_id": "90328f6e-d961-48ba-ab03-366d93df3c07"
  },
  {
    "city": "Тейково",
    "population": "31.8",
    "lat": "56.8542719",
    "lon": "40.5353874",
    "region_name": "Ивановская область",
    "region_iso_code": "RU-IVA",
    "federal_district": "Центральный",
    "okato": "24407000000",
    "oktmo": "24707000001",
    "kladr_id": "3701700100000",
    "fias_id": "09a16212-dcce-4f9a-be1a-515911beaba3"
  },
  {
    "city": "Фурманов",
    "population": "33.2",
    "lat": "57.2539276",
    "lon": "41.1054432",
    "region_name": "Ивановская область",
    "region_iso_code": "RU-IVA",
    "federal_district": "Центральный",
    "okato": "24231000000",
    "oktmo": "24631101001",
    "kladr_id": "3701800100000",
    "fias_id": "9d56ad01-abe9-4f14-89e5-9af4544b94b2"
  },
  {
    "city": "Шуя",
    "population": "57.0",
    "lat": "56.8560234",
    "lon": "41.3800939",
    "region_name": "Ивановская область",
    "region_iso_code": "RU-IVA",
    "federal_district": "Центральный",
    "okato": "24411000000",
    "oktmo": "24711000001",
    "kladr_id": "3701900100000",
    "fias_id": "a6c7e92c-79cf-4b47-beb6-40192295c559"
  },
  {
    "city": "Южа",
    "population": "12.2",
    "lat": "56.5926877",
    "lon": "42.0458099",
    "region_name": "Ивановская область",
    "region_iso_code": "RU-IVA",
    "federal_district": "Центральный",
    "okato": "24235501000",
    "oktmo": "24635101001",
    "kladr_id": "3702000100000",
    "fias_id": "16c1333c-8766-4135-a29a-e08f959e60bc"
  },
  {
    "city": "Юрьевец",
    "population": "7.9",
    "lat": "57.3177781",
    "lon": "43.1110401",
    "region_name": "Ивановская область",
    "region_iso_code": "RU-IVA",
    "federal_district": "Центральный",
    "okato": "24237501000",
    "oktmo": "24637101001",
    "kladr_id": "3702100100000",
    "fias_id": "be9d618e-8dc4-498f-aed6-03ce38f82683"
  },
  {
    "city": "Алзамай",
    "population": "5.7",
    "lat": "55.5551233",
    "lon": "98.6643699",
    "region_name": "Иркутская область",
    "region_iso_code": "RU-IRK",
    "federal_district": "Сибирский",
    "okato": "25228508000",
    "oktmo": "25628105001",
    "kladr_id": "3801600200000",
    "fias_id": "a7812582-bd5d-4d13-b284-d2b052265e9d"
  },
  {
    "city": "Ангарск",
    "population": "224.6",
    "lat": "52.544879",
    "lon": "103.888543",
    "region_name": "Иркутская область",
    "region_iso_code": "RU-IRK",
    "federal_district": "Сибирский",
    "okato": "25203501000",
    "oktmo": "25703000001",
    "kladr_id": "3800000400000",
    "fias_id": "82b6b7c8-82a4-44b2-8bc7-691373706b89"
  },
  {
    "city": "Байкальск",
    "population": "12.5",
    "lat": "51.5230393",
    "lon": "104.1487532",
    "region_name": "Иркутская область",
    "region_iso_code": "RU-IRK",
    "federal_district": "Сибирский",
    "okato": "25234508000",
    "oktmo": "25634108001",
    "kladr_id": "3801800200000",
    "fias_id": "cd4477e8-3335-442a-a0a4-9429a52f5c52"
  },
  {
    "city": "Бирюсинск",
    "population": "8.4",
    "lat": "55.9609167",
    "lon": "97.8205348",
    "region_name": "Иркутская область",
    "region_iso_code": "RU-IRK",
    "federal_district": "Сибирский",
    "okato": "25236508000",
    "oktmo": "25636105001",
    "kladr_id": "3801900200000",
    "fias_id": "5b646190-2037-409f-bf0f-6fb8194a0581"
  },
  {
    "city": "Бодайбо",
    "population": "12.0",
    "lat": "57.8468636",
    "lon": "114.1866287",
    "region_name": "Иркутская область",
    "region_iso_code": "RU-IRK",
    "federal_district": "Сибирский",
    "okato": "25202501000",
    "oktmo": "25602101001",
    "kladr_id": "3800000600000",
    "fias_id": "8ace6ae4-7a35-494a-bfbd-9a743a929c39"
  },
  {
    "city": "Братск",
    "population": "226.3",
    "lat": "56.1513108",
    "lon": "101.6340035",
    "region_name": "Иркутская область",
    "region_iso_code": "RU-IRK",
    "federal_district": "Сибирский",
    "okato": "25414000000",
    "oktmo": "25714000001",
    "kladr_id": "3800000500000",
    "fias_id": "bdf6b629-b33e-4cfa-b4b2-7f693e1d821c"
  },
  {
    "city": "Вихоревка",
    "population": "20.8",
    "lat": "56.1208145",
    "lon": "101.1702926",
    "region_name": "Иркутская область",
    "region_iso_code": "RU-IRK",
    "federal_district": "Сибирский",
    "okato": "25204503000",
    "oktmo": "25604103001",
    "kladr_id": "3800500200000",
    "fias_id": "04bc8726-0523-4aeb-8450-fe07ff425372"
  },
  {
    "city": "Железногорск-Илимский",
    "population": "22.9",
    "lat": "56.5847888",
    "lon": "104.114275",
    "region_name": "Иркутская область",
    "region_iso_code": "RU-IRK",
    "federal_district": "Сибирский",
    "okato": "25226501000",
    "oktmo": "25626101001",
    "kladr_id": "3801500100000",
    "fias_id": "31ba5d12-ae5b-4cc0-8892-2a504423ee61"
  },
  {
    "city": "Зима",
    "population": "30.5",
    "lat": "53.920693",
    "lon": "102.0491772",
    "region_name": "Иркутская область",
    "region_iso_code": "RU-IRK",
    "federal_district": "Сибирский",
    "okato": "25420000000",
    "oktmo": "25720000001",
    "kladr_id": "3800000700000",
    "fias_id": "7c3452ac-3953-4b78-a80c-64ec839620a6"
  },
  {
    "city": "Иркутск",
    "population": "623.6",
    "lat": "52.2864036",
    "lon": "104.2807466",
    "region_name": "Иркутская область",
    "region_iso_code": "RU-IRK",
    "federal_district": "Сибирский",
    "okato": "25401000000",
    "oktmo": "25701000001",
    "kladr_id": "3800000300000",
    "fias_id": "8eeed222-72e7-47c3-ab3a-9a553c31cf72"
  },
  {
    "city": "Киренск",
    "population": "11.0",
    "lat": "57.7756595",
    "lon": "108.1109412",
    "region_name": "Иркутская область",
    "region_iso_code": "RU-IRK",
    "federal_district": "Сибирский",
    "okato": "25220501000",
    "oktmo": "25620101001",
    "kladr_id": "3801200100000",
    "fias_id": "1ea67233-631c-49bf-8d7c-1a17fc785e97"
  },
  {
    "city": "Нижнеудинск",
    "population": "33.6",
    "lat": "54.8968931",
    "lon": "99.0314056",
    "region_name": "Иркутская область",
    "region_iso_code": "RU-IRK",
    "federal_district": "Сибирский",
    "okato": "25228501000",
    "oktmo": "25628101001",
    "kladr_id": "3800000800000",
    "fias_id": "5d596a21-da89-4820-91ef-6ce3940a0c9f"
  },
  {
    "city": "Саянск",
    "population": "38.8",
    "lat": "54.1107238",
    "lon": "102.18015",
    "region_name": "Иркутская область",
    "region_iso_code": "RU-IRK",
    "federal_district": "Сибирский",
    "okato": "25426000000",
    "oktmo": "25726000001",
    "kladr_id": "3800000200000",
    "fias_id": "c21b5e04-ce0f-4f98-b0ac-0ceabc531212"
  },
  {
    "city": "Свирск",
    "population": "12.7",
    "lat": "53.0842668",
    "lon": "103.3364093",
    "region_name": "Иркутская область",
    "region_iso_code": "RU-IRK",
    "federal_district": "Сибирский",
    "okato": "25427000000",
    "oktmo": "25746000001",
    "kladr_id": "3800001600000",
    "fias_id": "17e498bd-5f9e-4221-8998-5fa24a35ed2e"
  },
  {
    "city": "Слюдянка",
    "population": "18.2",
    "lat": "51.6563983",
    "lon": "103.7187545",
    "region_name": "Иркутская область",
    "region_iso_code": "RU-IRK",
    "federal_district": "Сибирский",
    "okato": "25234501000",
    "oktmo": "25634101001",
    "kladr_id": "3801800100000",
    "fias_id": "31802bef-b635-49b2-866d-1d1006e3081e"
  },
  {
    "city": "Тайшет",
    "population": "32.7",
    "lat": "55.9405334",
    "lon": "98.0030145",
    "region_name": "Иркутская область",
    "region_iso_code": "RU-IRK",
    "federal_district": "Сибирский",
    "okato": "25236501000",
    "oktmo": "25636101001",
    "kladr_id": "3800000900000",
    "fias_id": "945ac8e1-b529-4cec-afda-f92c6a6b0f70"
  },
  {
    "city": "Тулун",
    "population": "39.7",
    "lat": "54.557162",
    "lon": "100.5780603",
    "region_name": "Иркутская область",
    "region_iso_code": "RU-IRK",
    "federal_district": "Сибирский",
    "okato": "25432000000",
    "oktmo": "25732000001",
    "kladr_id": "3800001000000",
    "fias_id": "869c2c69-e8cd-43ae-9596-e0be50c0fcfe"
  },
  {
    "city": "Усолье-Сибирское",
    "population": "76.0",
    "lat": "52.7565808",
    "lon": "103.6388109",
    "region_name": "Иркутская область",
    "region_iso_code": "RU-IRK",
    "federal_district": "Сибирский",
    "okato": "25436000000",
    "oktmo": "25736000001",
    "kladr_id": "3800001100000",
    "fias_id": "ac680034-f7da-4bd8-8374-a5c97aa09516"
  },
  {
    "city": "Усть-Илимск",
    "population": "80.4",
    "lat": "57.9430504",
    "lon": "102.7415734",
    "region_name": "Иркутская область",
    "region_iso_code": "RU-IRK",
    "federal_district": "Сибирский",
    "okato": "25438000000",
    "oktmo": "25738000001",
    "kladr_id": "3800001200000",
    "fias_id": "78d11295-77b5-4ac4-b128-582e2989c0a5"
  },
  {
    "city": "Усть-Кут",
    "population": "40.8",
    "lat": "56.7928178",
    "lon": "105.7757343",
    "region_name": "Иркутская область",
    "region_iso_code": "RU-IRK",
    "federal_district": "Сибирский",
    "okato": "25244501000",
    "oktmo": "25644101001",
    "kladr_id": "3800001300000",
    "fias_id": "cfb0a55a-3314-42bf-b3d8-5ed5368abdd6"
  },
  {
    "city": "Черемхово",
    "population": "50.1",
    "lat": "53.1369095",
    "lon": "103.0901268",
    "region_name": "Иркутская область",
    "region_iso_code": "RU-IRK",
    "federal_district": "Сибирский",
    "okato": "25445000000",
    "oktmo": "25745000001",
    "kladr_id": "3800001400000",
    "fias_id": "f05b68c4-f1c7-4c3d-b557-f1f44a57b85f"
  },
  {
    "city": "Шелехов",
    "population": "48.4",
    "lat": "52.2102538",
    "lon": "104.0973294",
    "region_name": "Иркутская область",
    "region_iso_code": "RU-IRK",
    "federal_district": "Сибирский",
    "okato": "25255501000",
    "oktmo": "25655101001",
    "kladr_id": "3800001500000",
    "fias_id": "c727ac3a-e05c-4b81-b8e1-9b1003c28595"
  },
  {
    "city": "Баксан",
    "population": "38.5",
    "lat": "43.6819137",
    "lon": "43.5345036",
    "region_name": "Кабардино-Балкарская Республика",
    "region_iso_code": "RU-KB",
    "federal_district": "Северо-Кавказский",
    "okato": "83403000000",
    "oktmo": "83703000001",
    "kladr_id": "700000300000",
    "fias_id": "67851dfd-e142-451a-b6b1-ea5e9bc7f0c1"
  },
  {
    "city": "Майский",
    "population": "26.7",
    "lat": "43.6281516",
    "lon": "44.0517314",
    "region_name": "Кабардино-Балкарская Республика",
    "region_iso_code": "RU-KB",
    "federal_district": "Северо-Кавказский",
    "okato": "83220501000",
    "oktmo": "83620101001",
    "kladr_id": "700400100000",
    "fias_id": "e9f48c52-6cc4-47d9-ba6d-e7b12e8e0871"
  },
  {
    "city": "Нальчик",
    "population": "239.6",
    "lat": "43.4845464",
    "lon": "43.60713",
    "region_name": "Кабардино-Балкарская Республика",
    "region_iso_code": "RU-KB",
    "federal_district": "Северо-Кавказский",
    "okato": "83401000000",
    "oktmo": "83701000001",
    "kladr_id": "700000100000",
    "fias_id": "913a82e3-b671-43d5-97b4-8a08b8ee2d28"
  },
  {
    "city": "Нарткала",
    "population": "30.6",
    "lat": "43.5578075",
    "lon": "43.8575925",
    "region_name": "Кабардино-Балкарская Республика",
    "region_iso_code": "RU-KB",
    "federal_district": "Северо-Кавказский",
    "okato": "83240501000",
    "oktmo": "83640101001",
    "kladr_id": "700700100000",
    "fias_id": "cb0f531d-4831-41c0-a859-3ad1f2e0f70b"
  },
  {
    "city": "Прохладный",
    "population": "58.2",
    "lat": "43.7589602",
    "lon": "44.0102409",
    "region_name": "Кабардино-Балкарская Республика",
    "region_iso_code": "RU-KB",
    "federal_district": "Северо-Кавказский",
    "okato": "83410000000",
    "oktmo": "83710000001",
    "kladr_id": "700000200000",
    "fias_id": "22973a33-7a1c-449d-9535-def88bd91ed3"
  },
  {
    "city": "Терек",
    "population": "19.5",
    "lat": "43.4839358",
    "lon": "44.1402161",
    "region_name": "Кабардино-Балкарская Республика",
    "region_iso_code": "RU-KB",
    "federal_district": "Северо-Кавказский",
    "okato": "83235501000",
    "oktmo": "83635101001",
    "kladr_id": "700600100000",
    "fias_id": "9886a048-8715-4526-80b1-2f0fd8dd7bdf"
  },
  {
    "city": "Тырныауз",
    "population": "20.6",
    "lat": "43.3981585",
    "lon": "42.9213582",
    "region_name": "Кабардино-Балкарская Республика",
    "region_iso_code": "RU-KB",
    "federal_district": "Северо-Кавказский",
    "okato": "83248501000",
    "oktmo": "83648101001",
    "kladr_id": "701000100000",
    "fias_id": "e0ee885d-786e-457e-9568-2def04ee83b0"
  },
  {
    "city": "Чегем",
    "population": "18.4",
    "lat": "43.5671525",
    "lon": "43.5865792",
    "region_name": "Кабардино-Балкарская Республика",
    "region_iso_code": "RU-KB",
    "federal_district": "Северо-Кавказский",
    "okato": "83245501000",
    "oktmo": "83645101001",
    "kladr_id": "700800100000",
    "fias_id": "17bfd906-04ef-45f2-abbb-fcf801d0ba84"
  },
  {
    "city": "Багратионовск",
    "population": "6.4",
    "lat": "54.3866518",
    "lon": "20.6418091",
    "region_name": "Калининградская область",
    "region_iso_code": "RU-KGD",
    "federal_district": "Северо-Западный",
    "okato": "27203501000",
    "oktmo": "27703000001",
    "kladr_id": "3900200100000",
    "fias_id": "427dc561-3277-43bd-a310-7c1953a3c8bd"
  },
  {
    "city": "Балтийск",
    "population": "33.7",
    "lat": "54.6513372",
    "lon": "19.9140572",
    "region_name": "Калининградская область",
    "region_iso_code": "RU-KGD",
    "federal_district": "Северо-Западный",
    "okato": "27405000000",
    "oktmo": "27705000001",
    "kladr_id": "3901500100000",
    "fias_id": "97323948-09db-411c-8e9a-43ad2ec25687"
  },
  {
    "city": "Гвардейск",
    "population": "13.3",
    "lat": "54.6588378",
    "lon": "21.0501388",
    "region_name": "Калининградская область",
    "region_iso_code": "RU-KGD",
    "federal_district": "Северо-Западный",
    "okato": "27206501000",
    "oktmo": "27706000001",
    "kladr_id": "3900300100000",
    "fias_id": "8f9e9cc0-711f-470a-9fff-2a65c00c8439"
  },
  {
    "city": "Гурьевск",
    "population": "19.3",
    "lat": "54.770638",
    "lon": "20.6039767",
    "region_name": "Калининградская область",
    "region_iso_code": "RU-KGD",
    "federal_district": "Северо-Западный",
    "okato": "27209501000",
    "oktmo": "27707000001",
    "kladr_id": "3900400100000",
    "fias_id": "27bc7f09-4593-4972-950b-231f2a49d44b"
  },
  {
    "city": "Гусев",
    "population": "28.5",
    "lat": "54.5915455",
    "lon": "22.1942445",
    "region_name": "Калининградская область",
    "region_iso_code": "RU-KGD",
    "federal_district": "Северо-Западный",
    "okato": "27212501000",
    "oktmo": "27709000001",
    "kladr_id": "3900500100000",
    "fias_id": "66cb21da-0212-4d22-a2a3-f1badcd3a9d4"
  },
  {
    "city": "Зеленоградск",
    "population": "16.5",
    "lat": "54.9600185",
    "lon": "20.4753652",
    "region_name": "Калининградская область",
    "region_iso_code": "RU-KGD",
    "federal_district": "Северо-Западный",
    "okato": "27215501000",
    "oktmo": "27710000001",
    "kladr_id": "3900600100000",
    "fias_id": "448d8a42-8ebf-4ca5-a9f2-98efb532630f"
  },
  {
    "city": "Калининград",
    "population": "489.3",
    "lat": "54.7074702",
    "lon": "20.5073241",
    "region_name": "Калининградская область",
    "region_iso_code": "RU-KGD",
    "federal_district": "Северо-Западный",
    "okato": "27401000000",
    "oktmo": "27701000001",
    "kladr_id": "3900000100000",
    "fias_id": "df679694-d505-4dd3-b514-4ba48c8a97d8"
  },
  {
    "city": "Краснознаменск",
    "population": "3.1",
    "lat": "54.9453423",
    "lon": "22.4928745",
    "region_name": "Калининградская область",
    "region_iso_code": "RU-KGD",
    "federal_district": "Северо-Западный",
    "okato": "27218501000",
    "oktmo": "27713000001",
    "kladr_id": "3900700100000",
    "fias_id": "40c2a58b-8f84-4b30-8a22-038efe4f059a"
  },
  {
    "city": "Ладушкин",
    "population": "3.9",
    "lat": "54.5692156",
    "lon": "20.1690153",
    "region_name": "Калининградская область",
    "region_iso_code": "RU-KGD",
    "federal_district": "Северо-Западный",
    "okato": "27203505000",
    "oktmo": "27711000001",
    "kladr_id": "3900000800000",
    "fias_id": "04950f38-5c4c-4989-8b7a-6224795a2b59"
  },
  {
    "city": "Мамоново",
    "population": "8.0",
    "lat": "54.4646036",
    "lon": "19.9453482",
    "region_name": "Калининградская область",
    "region_iso_code": "RU-KGD",
    "federal_district": "Северо-Западный",
    "okato": "27203510000",
    "oktmo": "27712000001",
    "kladr_id": "3900000900000",
    "fias_id": "2942ef2d-01b0-4137-8f46-5228e9eedd7f"
  },
  {
    "city": "Неман",
    "population": "10.8",
    "lat": "55.0316524",
    "lon": "22.0324064",
    "region_name": "Калининградская область",
    "region_iso_code": "RU-KGD",
    "federal_district": "Северо-Западный",
    "okato": "27221501000",
    "oktmo": "27714000001",
    "kladr_id": "3900800100000",
    "fias_id": "180fcdbd-95b4-41f5-90f5-cbe9b9c83da7"
  },
  {
    "city": "Нестеров",
    "population": "3.9",
    "lat": "54.6313814",
    "lon": "22.5713736",
    "region_name": "Калининградская область",
    "region_iso_code": "RU-KGD",
    "federal_district": "Северо-Западный",
    "okato": "27224501000",
    "oktmo": "27715000001",
    "kladr_id": "3900900100000",
    "fias_id": "4fb71afc-f221-454e-9edf-d6fd9ee07418"
  },
  {
    "city": "Озерск",
    "population": "3.8",
    "lat": "54.4084705",
    "lon": "22.0134438",
    "region_name": "Калининградская область",
    "region_iso_code": "RU-KGD",
    "federal_district": "Северо-Западный",
    "okato": "27227501000",
    "oktmo": "27716000001",
    "kladr_id": "3901000100000",
    "fias_id": "19620317-39e8-4a09-af7e-67b136ef61fe"
  },
  {
    "city": "Пионерский",
    "population": "12.2",
    "lat": "54.9516574",
    "lon": "20.2277424",
    "region_name": "Калининградская область",
    "region_iso_code": "RU-KGD",
    "federal_district": "Северо-Западный",
    "okato": "27417000000",
    "oktmo": "27717000001",
    "kladr_id": "3900000300000",
    "fias_id": "9fee1c1b-9d14-42ea-8ff9-2e903501d43d"
  },
  {
    "city": "Полесск",
    "population": "6.9",
    "lat": "54.8625126",
    "lon": "21.0998067",
    "region_name": "Калининградская область",
    "region_iso_code": "RU-KGD",
    "federal_district": "Северо-Западный",
    "okato": "27230501000",
    "oktmo": "27718000001",
    "kladr_id": "3901100100000",
    "fias_id": "27fd5628-fbd7-4641-abed-b213af6029b8"
  },
  {
    "city": "Правдинск",
    "population": "4.0",
    "lat": "54.4430986",
    "lon": "21.0085269",
    "region_name": "Калининградская область",
    "region_iso_code": "RU-KGD",
    "federal_district": "Северо-Западный",
    "okato": "27233501000",
    "oktmo": "27719000001",
    "kladr_id": "3901200100000",
    "fias_id": "2b3f4c49-0e5b-44c8-bf56-a335eb551c23"
  },
  {
    "city": "Приморск",
    "population": "1.9",
    "lat": "54.7311437",
    "lon": "19.9981926",
    "region_name": "Калининградская область",
    "region_iso_code": "RU-KGD",
    "federal_district": "Северо-Западный",
    "okato": "27405555000",
    "oktmo": "27705000006",
    "kladr_id": "3901500200000",
    "fias_id": "5f19f5f2-55b1-4796-9610-8a73eeefcaf1"
  },
  {
    "city": "Светлогорск",
    "population": "15.2",
    "lat": "54.9439286",
    "lon": "20.1514295",
    "region_name": "Калининградская область",
    "region_iso_code": "RU-KGD",
    "federal_district": "Северо-Западный",
    "okato": "27420000000",
    "oktmo": "27734000001",
    "kladr_id": "3901600100000",
    "fias_id": "19436029-357a-435b-8156-b01fba4ea8a5"
  },
  {
    "city": "Светлый",
    "population": "21.6",
    "lat": "54.6772897",
    "lon": "20.1357595",
    "region_name": "Калининградская область",
    "region_iso_code": "RU-KGD",
    "federal_district": "Северо-Западный",
    "okato": "27425000000",
    "oktmo": "27725000001",
    "kladr_id": "3900000600000",
    "fias_id": "6d379259-b8d5-4cca-9412-1ded0849fd1a"
  },
  {
    "city": "Славск",
    "population": "4.0",
    "lat": "55.0449714",
    "lon": "21.6742367",
    "region_name": "Калининградская область",
    "region_iso_code": "RU-KGD",
    "federal_district": "Северо-Западный",
    "okato": "27236501000",
    "oktmo": "27727000001",
    "kladr_id": "3901300100000",
    "fias_id": "f731c104-431c-494c-b4e8-f97ccaaf71b9"
  },
  {
    "city": "Советск",
    "population": "39.0",
    "lat": "55.0809336",
    "lon": "21.8886106",
    "region_name": "Калининградская область",
    "region_iso_code": "RU-KGD",
    "federal_district": "Северо-Западный",
    "okato": "27430000000",
    "oktmo": "27730000001",
    "kladr_id": "3900000700000",
    "fias_id": "e401208f-3469-403f-910b-bba057cf70b2"
  },
  {
    "city": "Черняховск",
    "population": "35.4",
    "lat": "54.6244751",
    "lon": "21.7969062",
    "region_name": "Калининградская область",
    "region_iso_code": "RU-KGD",
    "federal_district": "Северо-Западный",
    "okato": "27239501000",
    "oktmo": "27739000001",
    "kladr_id": "3901400100000",
    "fias_id": "acde8f61-fd56-4cec-a4df-1f033e2a63ee"
  },
  {
    "city": "Балабаново",
    "population": "25.6",
    "lat": "55.1773714",
    "lon": "36.6566951",
    "region_name": "Калужская область",
    "region_iso_code": "RU-KLU",
    "federal_district": "Центральный",
    "okato": "29206505000",
    "oktmo": "29606105001",
    "kladr_id": "4000400200000",
    "fias_id": "ef65fa9c-6516-4175-a00a-6410a4a6f2d6"
  },
  {
    "city": "Белоусово",
    "population": "10.2",
    "lat": "55.0956803",
    "lon": "36.677629",
    "region_name": "Калужская область",
    "region_iso_code": "RU-KLU",
    "federal_district": "Центральный",
    "okato": "29213507000",
    "oktmo": "29613157001",
    "kladr_id": "4000900200000",
    "fias_id": "4601e932-0ca3-474f-a8a6-e67cc034b346"
  },
  {
    "city": "Боровск",
    "population": "10.3",
    "lat": "55.2130096",
    "lon": "36.4926251",
    "region_name": "Калужская область",
    "region_iso_code": "RU-KLU",
    "federal_district": "Центральный",
    "okato": "29206501000",
    "oktmo": "29606101001",
    "kladr_id": "4000400100000",
    "fias_id": "db14bfff-fea7-469e-82f4-ccf4209d6753"
  },
  {
    "city": "Ермолино",
    "population": "10.1",
    "lat": "55.1971758",
    "lon": "36.5952722",
    "region_name": "Калужская область",
    "region_iso_code": "RU-KLU",
    "federal_district": "Центральный",
    "okato": "29206507000",
    "oktmo": "29606157001",
    "kladr_id": "4000400400000",
    "fias_id": "0c66ce29-8464-40ef-a11d-e8e6df7475fd"
  },
  {
    "city": "Жиздра",
    "population": "5.4",
    "lat": "53.7521926",
    "lon": "34.7386592",
    "region_name": "Калужская область",
    "region_iso_code": "RU-KLU",
    "federal_district": "Центральный",
    "okato": "29212501000",
    "oktmo": "29612101",
    "kladr_id": "4000800100000",
    "fias_id": "2073f6df-cf12-455f-818d-cedea8f783fa"
  },
  {
    "city": "Жуков",
    "population": "13.7",
    "lat": "55.0301833",
    "lon": "36.7394903",
    "region_name": "Калужская область",
    "region_iso_code": "RU-KLU",
    "federal_district": "Центральный",
    "okato": "29213501000",
    "oktmo": "29613101001",
    "kladr_id": "4000900100000",
    "fias_id": "53f014ee-1074-4f90-b948-9e5219e24b9b"
  },
  {
    "city": "Калуга",
    "population": "332.0",
    "lat": "54.5059848",
    "lon": "36.2516245",
    "region_name": "Калужская область",
    "region_iso_code": "RU-KLU",
    "federal_district": "Центральный",
    "okato": "29401000000",
    "oktmo": "29701000001",
    "kladr_id": "4000000100000",
    "fias_id": "b502ae45-897e-4b6f-9776-6ff49740b537"
  },
  {
    "city": "Киров",
    "population": "29.9",
    "lat": "54.0790111",
    "lon": "34.3076201",
    "region_name": "Калужская область",
    "region_iso_code": "RU-KLU",
    "federal_district": "Центральный",
    "okato": "29214501000",
    "oktmo": "29614101001",
    "kladr_id": "4001100100000",
    "fias_id": "7c875ac0-5c75-4798-8786-564ccb5bd9f2"
  },
  {
    "city": "Козельск",
    "population": "16.4",
    "lat": "54.0347201",
    "lon": "35.780768",
    "region_name": "Калужская область",
    "region_iso_code": "RU-KLU",
    "federal_district": "Центральный",
    "okato": "29216501000",
    "oktmo": "29616101001",
    "kladr_id": "4001200100000",
    "fias_id": "adc77035-406d-4cb4-9bcc-094c89ac67fc"
  },
  {
    "city": "Кондрово",
    "population": "14.6",
    "lat": "54.7959473",
    "lon": "35.9274842",
    "region_name": "Калужская область",
    "region_iso_code": "RU-KLU",
    "federal_district": "Центральный",
    "okato": "29208501000",
    "oktmo": "29608101001",
    "kladr_id": "4000600100000",
    "fias_id": "9ea37890-3ec5-4425-8e41-f60d1844335d"
  },
  {
    "city": "Кременки",
    "population": "10.3",
    "lat": "54.8862447",
    "lon": "37.1168701",
    "region_name": "Калужская область",
    "region_iso_code": "RU-KLU",
    "federal_district": "Центральный",
    "okato": "29213510000",
    "oktmo": "29613160001",
    "kladr_id": "4000900400000",
    "fias_id": "73c0bcae-5da5-4796-9084-9b9e5905d501"
  },
  {
    "city": "Людиново",
    "population": "37.3",
    "lat": "53.8700828",
    "lon": "34.4385915",
    "region_name": "Калужская область",
    "region_iso_code": "RU-KLU",
    "federal_district": "Центральный",
    "okato": "29220501000",
    "oktmo": "29620101001",
    "kladr_id": "4001400100000",
    "fias_id": "e6b8a826-768f-4745-889b-e774c1520c5f"
  },
  {
    "city": "Малоярославец",
    "population": "27.8",
    "lat": "55.0177123",
    "lon": "36.4633603",
    "region_name": "Калужская область",
    "region_iso_code": "RU-KLU",
    "federal_district": "Центральный",
    "okato": "29223501000",
    "oktmo": "29623101001",
    "kladr_id": "4001500100000",
    "fias_id": "72cb3a9a-0180-4619-ac08-07e762e58e6f"
  },
  {
    "city": "Медынь",
    "population": "8.2",
    "lat": "54.9689785",
    "lon": "35.8872168",
    "region_name": "Калужская область",
    "region_iso_code": "RU-KLU",
    "federal_district": "Центральный",
    "okato": "29225501000",
    "oktmo": "29625101001",
    "kladr_id": "4001600100000",
    "fias_id": "df03aec4-0859-4f40-9f51-90b2ed2f83ef"
  },
  {
    "city": "Мещовск",
    "population": "3.8",
    "lat": "54.3191471",
    "lon": "35.2816918",
    "region_name": "Калужская область",
    "region_iso_code": "RU-KLU",
    "federal_district": "Центральный",
    "okato": "29227501000",
    "oktmo": "29627101001",
    "kladr_id": "4001700100000",
    "fias_id": "9b4890ea-75d9-4464-96f1-077c8a9c7e34"
  },
  {
    "city": "Мосальск",
    "population": "4.2",
    "lat": "54.4824939",
    "lon": "34.9872239",
    "region_name": "Калужская область",
    "region_iso_code": "RU-KLU",
    "federal_district": "Центральный",
    "okato": "29229501000",
    "oktmo": "29629101001",
    "kladr_id": "4001800100000",
    "fias_id": "4ae6d306-349e-4fb8-9ce9-7c3735d3c4e6"
  },
  {
    "city": "Обнинск",
    "population": "117.4",
    "lat": "55.0943144",
    "lon": "36.6121639",
    "region_name": "Калужская область",
    "region_iso_code": "RU-KLU",
    "federal_district": "Центральный",
    "okato": "29415000000",
    "oktmo": "29715000001",
    "kladr_id": "4000000200000",
    "fias_id": "05a647ff-b859-4c93-8c8e-3590110a0085"
  },
  {
    "city": "Сосенский",
    "population": "10.4",
    "lat": "54.0566016",
    "lon": "35.9621646",
    "region_name": "Калужская область",
    "region_iso_code": "RU-KLU",
    "federal_district": "Центральный",
    "okato": "29216504000",
    "oktmo": "29616104001",
    "kladr_id": "4001200200000",
    "fias_id": "44326142-0196-4cec-abcb-79853fe6cfd4"
  },
  {
    "city": "Спас-Деменск",
    "population": "4.3",
    "lat": "54.409922",
    "lon": "34.0189631",
    "region_name": "Калужская область",
    "region_iso_code": "RU-KLU",
    "federal_district": "Центральный",
    "okato": "29234501000",
    "oktmo": "29634101001",
    "kladr_id": "4000500100000",
    "fias_id": "30745bd5-b803-4327-baf9-006f25353acc"
  },
  {
    "city": "Сухиничи",
    "population": "14.8",
    "lat": "54.097296",
    "lon": "35.3443568",
    "region_name": "Калужская область",
    "region_iso_code": "RU-KLU",
    "federal_district": "Центральный",
    "okato": "29236501000",
    "oktmo": "29636101001",
    "kladr_id": "4002000100000",
    "fias_id": "84778f7b-bf8c-45cc-84e1-dfd136368e6a"
  },
  {
    "city": "Таруса",
    "population": "9.2",
    "lat": "54.7236477",
    "lon": "37.1671",
    "region_name": "Калужская область",
    "region_iso_code": "RU-KLU",
    "federal_district": "Центральный",
    "okato": "29238501000",
    "oktmo": "29638101001",
    "kladr_id": "4002100100000",
    "fias_id": "31a0a531-a20f-4ccc-a370-551cd9867b0c"
  },
  {
    "city": "Юхнов",
    "population": "5.8",
    "lat": "54.7446445",
    "lon": "35.2424346",
    "region_name": "Калужская область",
    "region_iso_code": "RU-KLU",
    "federal_district": "Центральный",
    "okato": "29250501000",
    "oktmo": "29650101001",
    "kladr_id": "4002500100000",
    "fias_id": "503b2859-0304-4e8e-b627-8f611ff27d5e"
  },
  {
    "city": "Вилючинск",
    "population": "22.2",
    "lat": "52.9302415",
    "lon": "158.4057632",
    "region_name": "Камчатский край",
    "region_iso_code": "RU-KAM",
    "federal_district": "Дальневосточный",
    "okato": "30535000000",
    "oktmo": "30735000001",
    "kladr_id": "4100000200000",
    "fias_id": "b75a9701-5cd4-4623-99d5-4fa7463ceb47"
  },
  {
    "city": "Елизово",
    "population": "39.3",
    "lat": "53.1830375",
    "lon": "158.3883548",
    "region_name": "Камчатский край",
    "region_iso_code": "RU-KAM",
    "federal_district": "Дальневосточный",
    "okato": "30402000000",
    "oktmo": "30607101001",
    "kladr_id": "4100500100000",
    "fias_id": "3da129ee-9b72-45ec-bef9-07b69e1eed4e"
  },
  {
    "city": "Петропавловск-Камчатский",
    "population": "179.6",
    "lat": "53.036908",
    "lon": "158.6559254",
    "region_name": "Камчатский край",
    "region_iso_code": "RU-KAM",
    "federal_district": "Дальневосточный",
    "okato": "30401000000",
    "oktmo": "30701000001",
    "kladr_id": "4100000100000",
    "fias_id": "0b3f0723-5fe0-4c23-af44-8082166c6d2e"
  },
  {
    "city": "Карачаевск",
    "population": "20.8",
    "lat": "43.7732525",
    "lon": "41.9143472",
    "region_name": "Карачаево-Черкесская Республика",
    "region_iso_code": "RU-KC",
    "federal_district": "Северо-Кавказский",
    "okato": "91405000000",
    "oktmo": "91705000001",
    "kladr_id": "900000200000",
    "fias_id": "cb390fbd-3149-4ac9-b9fb-6af069d51b71"
  },
  {
    "city": "Теберда",
    "population": "8.6",
    "lat": "43.4437731",
    "lon": "41.7415142",
    "region_name": "Карачаево-Черкесская Республика",
    "region_iso_code": "RU-KC",
    "federal_district": "Северо-Кавказский",
    "okato": "91405503000",
    "oktmo": "91705000006",
    "kladr_id": "900000300000",
    "fias_id": "2edbb310-a924-44a8-a6d0-c9b825214fcf"
  },
  {
    "city": "Усть-Джегута",
    "population": "30.6",
    "lat": "44.0838442",
    "lon": "41.9711046",
    "region_name": "Карачаево-Черкесская Республика",
    "region_iso_code": "RU-KC",
    "federal_district": "Северо-Кавказский",
    "okato": "91235501000",
    "oktmo": "91635101001",
    "kladr_id": "900800100000",
    "fias_id": "5de40749-195c-445b-b65a-fd1c397d1440"
  },
  {
    "city": "Черкесск",
    "population": "123.2",
    "lat": "44.2269425",
    "lon": "42.0466704",
    "region_name": "Карачаево-Черкесская Республика",
    "region_iso_code": "RU-KC",
    "federal_district": "Северо-Кавказский",
    "okato": "91401000000",
    "oktmo": "91701000001",
    "kladr_id": "900000100000",
    "fias_id": "2a4a7c93-f3f8-4042-8cbf-e04ab64f5e08"
  },
  {
    "city": "Анжеро-Судженск",
    "population": "68.1",
    "lat": "56.0786281",
    "lon": "86.0201278",
    "region_name": "Кемеровская область - Кузбасс",
    "region_iso_code": "RU-KEM",
    "federal_district": "Сибирский",
    "okato": "32404000000",
    "oktmo": "32704000001",
    "kladr_id": "4200000200000",
    "fias_id": "8a5314a4-903e-475c-a4db-8f03db3b793f"
  },
  {
    "city": "Белово",
    "population": "71.2",
    "lat": "54.4220968",
    "lon": "86.3037373",
    "region_name": "Кемеровская область - Кузбасс",
    "region_iso_code": "RU-KEM",
    "federal_district": "Сибирский",
    "okato": "32407000000",
    "oktmo": "32707000001",
    "kladr_id": "4200001500000",
    "fias_id": "1346744e-8a64-4712-8939-bb84a1692874"
  },
  {
    "city": "Березовский",
    "population": "45.6",
    "lat": "55.6693513",
    "lon": "86.2744459",
    "region_name": "Кемеровская область - Кузбасс",
    "region_iso_code": "RU-KEM",
    "federal_district": "Сибирский",
    "okato": "32410000000",
    "oktmo": "32710000001",
    "kladr_id": "4200000300000",
    "fias_id": "ef6bac92-b712-42ba-942b-515b36b9a32c"
  },
  {
    "city": "Гурьевск",
    "population": "22.4",
    "lat": "54.2859263",
    "lon": "85.9475985",
    "region_name": "Кемеровская область - Кузбасс",
    "region_iso_code": "RU-KEM",
    "federal_district": "Сибирский",
    "okato": "32413000000",
    "oktmo": "32502000001",
    "kladr_id": "4200300100000",
    "fias_id": "9924881d-bc20-4e72-8c2e-e4cf415c93c1"
  },
  {
    "city": "Калтан",
    "population": "20.4",
    "lat": "53.5210919",
    "lon": "87.2771636",
    "region_name": "Кемеровская область - Кузбасс",
    "region_iso_code": "RU-KEM",
    "federal_district": "Сибирский",
    "okato": "32415000000",
    "oktmo": "32715000001",
    "kladr_id": "4200000400000",
    "fias_id": "5000e677-7d3c-4eec-b01d-f3f192abbd41"
  },
  {
    "city": "Кемерово",
    "population": "556.4",
    "lat": "55.3910651",
    "lon": "86.0467781",
    "region_name": "Кемеровская область - Кузбасс",
    "region_iso_code": "RU-KEM",
    "federal_district": "Сибирский",
    "okato": "32401000000",
    "oktmo": "32701000001",
    "kladr_id": "4200000900000",
    "fias_id": "94bb19a3-c1fa-410b-8651-ac1bf7c050cd"
  },
  {
    "city": "Киселевск",
    "population": "86.6",
    "lat": "54.0059999",
    "lon": "86.6366116",
    "region_name": "Кемеровская область - Кузбасс",
    "region_iso_code": "RU-KEM",
    "federal_district": "Сибирский",
    "okato": "32416000000",
    "oktmo": "32716000001",
    "kladr_id": "4200000500000",
    "fias_id": "36122f01-1666-42e0-9c65-937787e8ca45"
  },
  {
    "city": "Ленинск-Кузнецкий",
    "population": "94.4",
    "lat": "54.6674492",
    "lon": "86.1797324",
    "region_name": "Кемеровская область - Кузбасс",
    "region_iso_code": "RU-KEM",
    "federal_district": "Сибирский",
    "okato": "32419000000",
    "oktmo": "32719000001",
    "kladr_id": "4200001000000",
    "fias_id": "cf600ae8-e376-42ae-bf7c-5aa1875dcd28"
  },
  {
    "city": "Мариинск",
    "population": "37.9",
    "lat": "56.2127383",
    "lon": "87.7454924",
    "region_name": "Кемеровская область - Кузбасс",
    "region_iso_code": "RU-KEM",
    "federal_district": "Сибирский",
    "okato": "32422000000",
    "oktmo": "32616101001",
    "kladr_id": "4200700100000",
    "fias_id": "34a2e393-69d3-4258-8daf-a6290a14b06e"
  },
  {
    "city": "Междуреченск",
    "population": "96.3",
    "lat": "53.6865289",
    "lon": "88.0702754",
    "region_name": "Кемеровская область - Кузбасс",
    "region_iso_code": "RU-KEM",
    "federal_district": "Сибирский",
    "okato": "32425000000",
    "oktmo": "32725000001",
    "kladr_id": "4200001600000",
    "fias_id": "c6a7e590-04b4-4a01-85fc-b61b63711bba"
  },
  {
    "city": "Мыски",
    "population": "40.8",
    "lat": "53.7125695",
    "lon": "87.8055646",
    "region_name": "Кемеровская область - Кузбасс",
    "region_iso_code": "RU-KEM",
    "federal_district": "Сибирский",
    "okato": "32428000000",
    "oktmo": "32728000001",
    "kladr_id": "4200000600000",
    "fias_id": "070a8e7b-038f-48c8-9eed-16a6c03ab899"
  },
  {
    "city": "Новокузнецк",
    "population": "549.4",
    "lat": "53.794315",
    "lon": "87.2142745",
    "region_name": "Кемеровская область - Кузбасс",
    "region_iso_code": "RU-KEM",
    "federal_district": "Сибирский",
    "okato": "32431000000",
    "oktmo": "32731000001",
    "kladr_id": "4200001200000",
    "fias_id": "b28b6f6f-1435-444e-95a6-68c499b0d27a"
  },
  {
    "city": "Осинники",
    "population": "41.7",
    "lat": "53.5988055",
    "lon": "87.3371272",
    "region_name": "Кемеровская область - Кузбасс",
    "region_iso_code": "RU-KEM",
    "federal_district": "Сибирский",
    "okato": "32434000000",
    "oktmo": "32734000001",
    "kladr_id": "4200000700000",
    "fias_id": "1efff7c4-448a-48c5-b476-c803b4d36842"
  },
  {
    "city": "Полысаево",
    "population": "25.9",
    "lat": "54.6055",
    "lon": "86.2809208",
    "region_name": "Кемеровская область - Кузбасс",
    "region_iso_code": "RU-KEM",
    "federal_district": "Сибирский",
    "okato": "32435000000",
    "oktmo": "32732000001",
    "kladr_id": "4200001100000",
    "fias_id": "34ac1b24-f541-4279-abfb-466f80ed1f7b"
  },
  {
    "city": "Прокопьевск",
    "population": "190.3",
    "lat": "53.8604265",
    "lon": "86.7183577",
    "region_name": "Кемеровская область - Кузбасс",
    "region_iso_code": "RU-KEM",
    "federal_district": "Сибирский",
    "okato": "32437000000",
    "oktmo": "32737000001",
    "kladr_id": "4200001300000",
    "fias_id": "2d8b9d01-1c4f-4987-8a0b-1eb5080c1f38"
  },
  {
    "city": "Салаир",
    "population": "7.3",
    "lat": "54.2351735",
    "lon": "85.8030733",
    "region_name": "Кемеровская область - Кузбасс",
    "region_iso_code": "RU-KEM",
    "federal_district": "Сибирский",
    "okato": "32413504000",
    "oktmo": "32502000006",
    "kladr_id": "4200300200000",
    "fias_id": "e7459805-4536-4037-9113-4b9b53893807"
  },
  {
    "city": "Тайга",
    "population": "23.1",
    "lat": "56.0622131",
    "lon": "85.6207182",
    "region_name": "Кемеровская область - Кузбасс",
    "region_iso_code": "RU-KEM",
    "federal_district": "Сибирский",
    "okato": "32440000000",
    "oktmo": "32740000001",
    "kladr_id": "4200000800000",
    "fias_id": "4da6f430-f531-42f5-9176-1f6cf7ba6367"
  },
  {
    "city": "Таштагол",
    "population": "22.9",
    "lat": "52.759313",
    "lon": "87.8476546",
    "region_name": "Кемеровская область - Кузбасс",
    "region_iso_code": "RU-KEM",
    "federal_district": "Сибирский",
    "okato": "32443000000",
    "oktmo": "32627101001",
    "kladr_id": "4201200100000",
    "fias_id": "6be8ac27-9aa0-4784-ba97-a15f066995d9"
  },
  {
    "city": "Топки",
    "population": "27.8",
    "lat": "55.2764707",
    "lon": "85.6152619",
    "region_name": "Кемеровская область - Кузбасс",
    "region_iso_code": "RU-KEM",
    "federal_district": "Сибирский",
    "okato": "32446000000",
    "oktmo": "32531000001",
    "kladr_id": "4201400100000",
    "fias_id": "5a6d8be0-aa32-4344-9a4d-89fdb4c94ae8"
  },
  {
    "city": "Юрга",
    "population": "80.8",
    "lat": "55.7202694",
    "lon": "84.8886399",
    "region_name": "Кемеровская область - Кузбасс",
    "region_iso_code": "RU-KEM",
    "federal_district": "Сибирский",
    "okato": "32449000000",
    "oktmo": "32749000001",
    "kladr_id": "4200001400000",
    "fias_id": "988289f5-d6d0-40d5-a483-55983e11c033"
  },
  {
    "city": "Белая Холуница",
    "population": "10.1",
    "lat": "58.8415239",
    "lon": "50.8460699",
    "region_name": "Кировская область",
    "region_iso_code": "RU-KIR",
    "federal_district": "Приволжский",
    "okato": "33205501000",
    "oktmo": "33605101001",
    "kladr_id": "4300400100000",
    "fias_id": "49e2b1b5-771f-4dfd-9428-e74cd055d113"
  },